universal-id,nces-id,state-id,name,school-summary,type,level-codes,level,street,city,state,fipscounty,zip,phone,fax,county,lat,lon,district-name,district-id,web-site,overview-url
2613500,260219008693,02686,Algonquin Elementary School,"Algonquin Elementary School, a public school located in Clay Township, MI, serves grades 2-6 in the Algonac Community School District.",public,e,"2,3,4,5,6",9185 MARSH RD,Clay Township,MI,26147,48001,(810) 794-9317,,St. Clair County,42.632698,-82.543167,Algonac Community School District,209,http://www.algonac.k12.mi.us,https://www.greatschools.org/michigan/clay-township/13500-Algonquin-Elementary-School/
2613517,260219008684,02752,Algonac Alternative Education,"Algonac Alternative Education, a public school located in Clay Township, MI, serves grades 7-12 in the Algonac Community School District.",public,"m,h","7,8,9,10,11,12",9541 PHELPS RD,Clay Township,MI,26147,48001,(810) 794-4911,,St. Clair County,42.627754,-82.585075,Algonac Community School District,209,http://www.algonac.k12.mi.us,https://www.greatschools.org/michigan/clay-township/13517-Algonac-Alternative-Education/
2613577,260219008689,02687,Millside Elementary School,"Millside Elementary School, a public school located in Clay Township, MI, serves grades PK-1 in the Algonac Community School District.",public,"p,e","PK,KG,1",1904 MILL ST,Clay Township,MI,26147,48001,(810) 794-8880,,St. Clair County,42.631245,-82.543709,Algonac Community School District,209,http://www.algonac.k12.mi.us,https://www.greatschools.org/michigan/clay-township/13577-Millside-Elementary-School/
2600307,260219003960,00054,Algonac High School,"Algonac High School, a public school located in Clay Township, MI, serves grades 7-12 in the Algonac Community School District.",public,"m,h","7,8,9,10,11,12",5200 TAFT RD,Clay Township,MI,26147,48001,(810) 794-4911,(810) 794-0040,St. Clair County,42.626915,-82.58252,Algonac Community School District,209,http://www.algonac.k12.mi.us,https://www.greatschools.org/michigan/algonac/307-Algonac-High-School/
2600311,260219003964,03128,Pte. Tremble Elementary School,"Pte. Tremble Elementary School, a public school located in CLAY, MI, serves grades PK, 9-12 in the Algonac Community School District.",public,"p,h","PK,9,10,11,12",9541 PHELPS RD,CLAY,MI,26147,48001,(810) 794-9317,(810) 794-8876,St. Clair County,42.627754,-82.585075,Algonac Community School District,209,http://www.algonac.k12.mi.us,https://www.greatschools.org/michigan/clay/311-Pte-Tremble-Elementary-School/
2600334,260267001137,08657,Orchard Primary School,"Orchard Primary School, a public school located in Almont, MI, serves grades PK-4 in the Almont Community Schools.",public,"p,e","PK,KG,1,2,3,4",4664 Kidder Road,Almont,MI,26087,48003,(810) 798-7019,(810) 798-3530,Lapeer County,42.931015,-83.036331,Almont Community Schools,214,http://www.almontschools.org,https://www.greatschools.org/michigan/almont/334-Orchard-Primary-School/
2600335,260267003982,00073,Almont High School,"Almont High School, a public school located in Almont, MI, serves grades 9-12 in the Almont Community Schools.",public,h,"9,10,11,12",4701 Howland Road,Almont,MI,26087,48003,(810) 798-8595,(810) 798-7011,Lapeer County,42.930332,-83.041382,Almont Community Schools,214,http://www.almontschools.org,https://www.greatschools.org/michigan/almont/335-Almont-High-School/
2606038,260267001839,09521,Almont Middle School,"Almont Middle School, a public school located in Almont, MI, serves grades PK, 5-8 in the Almont Community Schools.",public,"p,e,m","PK,5,6,7,8",4624 Kidder Road,Almont,MI,26087,48003,(810) 798-3578,(810) 798-3549,Lapeer County,42.931076,-83.038666,Almont Community Schools,214,http://www.almontschools.org,https://www.greatschools.org/michigan/almont/6038-Almont-Middle-School/
2600394,260324001143,08736,Macomb Academy of Arts & Sciences,"Macomb Academy of Arts & Sciences, a public school located in Armada, MI, serves grades 9-12 in the Armada Area Schools.",public,h,"9,10,11,12",23211 Prospect Avenue,Armada,MI,26099,48005,(586) 784-2150,(586) 784-8688,Macomb County,42.845913,-82.883484,Armada Area Schools,219,http://www.armadaschools.org,https://www.greatschools.org/michigan/armada/394-Macomb-Academy-Of-Arts--Sciences/
2600395,260324004042,00119,Armada High School,"Armada High School, a public school located in Armada, MI, serves grades 9-12 in the Armada Area Schools.",public,h,"9,10,11,12",23655 Armada Center Road,Armada,MI,26099,48005,(586) 784-2400,(586) 784-9592,Macomb County,42.851246,-82.876534,Armada Area Schools,219,http://www.armadaschools.org,https://www.greatschools.org/michigan/armada/395-Armada-High-School/
2600397,260324004044,06493,Armada Middle School,"Armada Middle School, a public school located in Armada, MI, serves grades 6-8 in the Armada Area Schools.",public,m,"6,7,8",23550 Armada Center Road,Armada,MI,26099,48005,(586) 784-2500,(586) 784-8650,Macomb County,42.849522,-82.878937,Armada Area Schools,219,http://www.armadaschools.org,https://www.greatschools.org/michigan/armada/397-Armada-Middle-School/
2604615,A9103433,00423,Calvary Baptist Church School,"Calvary Baptist Church School, a private school located in Armada, MI, serves grades 3, 6-7, 9-10, 12 in the .",private,"e,m,h","3,6,7,9,10,12",74940 Fulton St,Armada,MI,26099,48005,(586) 784-9050,,Macomb,42.849754,-82.884819,,0,,https://www.greatschools.org/michigan/armada/4615-Calvary-Baptist-Church-School/
2604802,A9702033,,Our Saviour Lutheran School,"Our Saviour Lutheran School, a private school located in Armada, MI, serves grades K-8 in the .",private,"e,m","KG,1,2,3,4,5,6,7,8",22511 West Main St,Armada,MI,26099,48005,(586) 784-9087,,Macomb,42.843601,-82.892502,,0,http://www.oslc-armada.org/,https://www.greatschools.org/michigan/armada/4802-Our-Saviour-Lutheran-School/
2605010,260324001375,08904,Orville C. Krause Later Elementary School,"Orville C. Krause Later Elementary School, a public school located in Armada, MI, serves grades PK-5 in the Armada Area Schools.",public,"p,e","PK,KG,1,2,3,4,5",23900 Armada Center Road,Armada,MI,26099,48005,(586) 784-2600,(586) 784-9147,Macomb County,42.849342,-82.876312,Armada Area Schools,219,http://www.armadaschools.org,https://www.greatschools.org/michigan/armada/5010-Orville-C.-Krause-Later-Elementary-School/
2609636,260324008269,00797,Armada Continuing Education Center,"Armada Continuing Education Center, a public school located in Armada, MI, serves grades 9-12 in the Armada Area Schools.",public,h,"9,10,11,12",23211 Prospect Avenue,Armada,MI,26099,48005,(586) 784-2400,(586) 784-9592,Macomb County,42.84605,-82.882568,Armada Area Schools,219,http://www.armadaschools.org,https://www.greatschools.org/michigan/armada/9636-Armada-Continuing-Education-Center/
2603768,263660007272,00157,Avoca Elementary School,"Avoca Elementary School, a public school located in Township of Kenockee, MI, serves grades PK-5 in the Yale Public Schools.",public,"p,e","PK,KG,1,2,3,4,5",8751 WILLOW ST,Township of Kenockee,MI,26147,48006,(810) 324-2660,(810) 324-2843,St. Clair County,43.059277,-82.689545,Yale Public Schools,737,http://www.ypsd.us,https://www.greatschools.org/michigan/kenockee-township/3768-Avoca-Elementary-School/
2613339,,,Brightmont Academy - Birmingham,"Brightmont Academy - Birmingham, a private school located in Birmingham, MI, serves grades 6-12 in the .",private,"m,h","6,7,8,9,10,11,12",33483 Woodward Avenue,Birmingham,MI,26125,48009,(248) 430-3060,,Oakland,42.534897,-83.203094,,0,http://www.brightmontacademy.com/campuses/birmingham/,https://www.greatschools.org/michigan/birmingham/13339-Brightmont-Academy---Birmingham/
2613844,A1702039,,Brightmont Academy   Birmingham,"Brightmont Academy   Birmingham, a private school located in Birmingham, MI, serves grades 7-12 in the .",private,"m,h","7,8,9,10,11,12",33483 Woodward Avenue,Birmingham,MI,26125,48009,(248) 430-3060,,Oakland County,42.534901,-83.20311,,0,,https://www.greatschools.org/michigan/birmingham/13844-Brightmont-Academy---Birmingham/
2604034,00638086,01731,Holy Name School,"Holy Name School, a private school located in Birmingham, MI, serves grades PK-8 in the .",private,"p,e,m","PK,TK,KG,1,2,3,4,5,6,7,8",680 Harmon Street,Birmingham,MI,26125,48009,(248) 644-2722,(248) 644-1191,Oakland County,42.550652,-83.222076,,0,,https://www.greatschools.org/michigan/birmingham/4034-Holy-Name-School/
2604312,00642525,02917,Our Shepherd Lutheran School,"Our Shepherd Lutheran School, a private school located in Birmingham, MI, serves grades PK-8 in the .",private,"p,e,m","PK,TK,KG,1,2,3,4,5,6,7,8",1658 East Lincoln Street,Birmingham,MI,26125,48009,(248) 645-0551,,Oakland County,42.538906,-83.198975,,0,http://ourshepherd.net/,https://www.greatschools.org/michigan/birmingham/4312-Our-Shepherd-Lutheran-School/
2604822,AA000474,01998,Eton Academy,"Eton Academy, a private school located in Birmingham, MI, serves grades 1-12 in the .",private,"e,m,h","1,2,3,4,5,6,7,8,9,10,11,12",1755 East Melton Road,Birmingham,MI,26125,48009,(248) 642-1150,,Oakland County,42.534512,-83.19178,,0,Etonacademy.org,https://www.greatschools.org/michigan/birmingham/4822-Eton-Academy/
2605422,AA000595,,Gateway Montessori School,"Gateway Montessori School, a private school located in Birmingham, MI, serves grades PK-K in the .",private,"p,e","PK,TK,KG",300 Willits Street,Birmingham,MI,26125,48009,(248) 645-6393,,Oakland County,42.547745,-83.21743,,0,gatewaymontessori.org,https://www.greatschools.org/michigan/birmingham/5422-Gateway-Montessori-School/
2600566,260585004216,00904,Derby Middle School,"Derby Middle School, a public school located in Birmingham, MI, serves grades 6-8 in the Birmingham Public Schools.",public,m,"6,7,8",1300 Derby Road,Birmingham,MI,26125,48009,(248) 203-5003,(248) 203-4948,Oakland County,42.552521,-83.204231,Birmingham Public Schools,255,http://www.birmingham.k12.mi.us,https://www.greatschools.org/michigan/birmingham/566-Derby-Middle-School/
2600567,260585004217,01154,Ernest W. Seaholm High School,"Ernest W. Seaholm High School, a public school located in Birmingham, MI, serves grades 9-12 & Ungraded in the Birmingham Public Schools.",public,h,"9,10,11,12,UG",2436 West Lincoln Street,Birmingham,MI,26125,48009,(248) 203-3702,(248) 203-3706,Oakland County,42.538631,-83.244316,Birmingham Public Schools,255,http://www.birmingham.k12.mi.us,https://www.greatschools.org/michigan/birmingham/567-Ernest-W.-Seaholm-High-School/
2600572,260585004223,03030,Pierce Elementary School,"Pierce Elementary School, a public school located in Birmingham, MI, serves grades PK-5 in the Birmingham Public Schools.",public,"p,e","PK,KG,1,2,3,4,5",1829 Pierce Street,Birmingham,MI,26125,48009,(248) 203-4337,(248) 203-4393,Oakland County,42.533115,-83.213432,Birmingham Public Schools,255,http://www.birmingham.k12.mi.us,https://www.greatschools.org/michigan/birmingham/572-Pierce-Elementary-School/
2600573,260585004224,03133,Quarton Elementary,"Quarton Elementary, a public school located in Birmingham, MI, serves grades K-5 in the Birmingham Public Schools.",public,e,"KG,1,2,3,4,5",771 Chesterfield Avenue,Birmingham,MI,26125,48009,(248) 203-3429,(248) 203-3430,Oakland County,42.551929,-83.236404,Birmingham Public Schools,255,http://www.birmingham.k12.mi.us,https://www.greatschools.org/michigan/birmingham/573-Quarton-Elementary/
2608580,,03261,Roeper City and Country Upper,"Roeper City and Country Upper, a private school located in Birmingham, MI, serves grades 6-12 in the .",private,"m,h","6,7,8,9,10,11,12",1051 Oakland Ave,Birmingham,MI,26125,48009,(248) 203-7327,(248) 203-7305,Oakland,42.549664,-83.20652,,0,,https://www.greatschools.org/michigan/birmingham/8580-Roeper-City-And-Country-Upper/
2609472,A0701345,,Roeper School,"Roeper School, a private school located in Birmingham, MI, serves grades 6-12 in the .",private,"m,h","6,7,8,9,10,11,12",1051 Oakland Avenue,Birmingham,MI,26125,48009,(248) 203-7405,,Oakland County,42.550152,-83.206551,,0,,https://www.greatschools.org/michigan/birmingham/9472-Roeper-School/
2600716,260780004357,00518,Capac Elementary School,"Capac Elementary School, a public school located in Capac, MI, serves grades PK-6 in the Capac Community Schools.",public,"p,e","PK,KG,1,2,3,4,5,6",351 West Kempf Court,Capac,MI,26147,48014,(810) 395-3636,(810) 395-8086,St Clair County,43.017479,-82.933609,Capac Community Schools,287,http://capacschools.us,https://www.greatschools.org/michigan/capac/716-Capac-Elementary-School/
2600717,260780004358,00519,Capac High School,"Capac High School, a public school located in Capac, MI, serves grades 7-12 in the Capac Community Schools.",public,"m,h","7,8,9,10,11,12",541 North Glassford Street,Capac,MI,26147,48014,(810) 395-3808,(810) 395-2427,St Clair County,43.01807,-82.934593,Capac Community Schools,287,http://capacschools.us,https://www.greatschools.org/michigan/capac/717-Capac-High-School/
2609688,260780008331,01394,Capac Virtual Education Program,"Capac Virtual Education Program, a public school located in Capac, MI, serves grades K-12 in the Capac Community Schools.",public,"e,m,h","KG,1,2,3,4,5,6,7,8,9,10,11,12",541 North Glassford Street,Capac,MI,26147,48014,(810) 395-3792,(810) 395-2427,St Clair County,43.01807,-82.934593,Capac Community Schools,287,http://capacschools.us,https://www.greatschools.org/michigan/capac/9688-Capac-Virtual-Education-Program/
2613834,260113108964,03747,Center Line Preparatory Academy,"Center Line Preparatory Academy, a charter school located in Center Line, MI, serves grades K-11 in the .",charter,"e,m,h","KG,1,2,3,4,5,6,7,8,9,10,11",8155 Ritter Street,Center Line,MI,26099,48015,(586) 690-4290,,Macomb County,42.480038,-83.024483,,0,www.nhaschools.com/schools/center-line-preparatory-academy/en,https://www.greatschools.org/michigan/center-line/13834-Center-Line-Preparatory-Academy/
2600762,260858004404,00580,Center Line High School,"Center Line High School, a public school located in Center Line, MI, serves grades 9-12 in the Center Line Public Schools.",public,h,"9,10,11,12",26300 Arsenal Street,Center Line,MI,26099,48015,(586) 510-2100,(586) 510-2119,Macomb County,42.486046,-83.019356,Center Line Public Schools,298,http://www.clps.org,https://www.greatschools.org/michigan/center-line/762-Center-Line-High-School/
2600766,260858004408,02445,May V. Peck Elementary School,"May V. Peck Elementary School, a public school located in Center Line, MI, serves grades K-5 in the Center Line Public Schools.",public,e,"KG,1,2,3,4,5",26201 Lorraine Avenue,Center Line,MI,26099,48015,(586) 510-2600,(586) 510-2609,Macomb County,42.485783,-83.016273,Center Line Public Schools,298,http://www.clps.org,https://www.greatschools.org/michigan/warren/766-May-V.-Peck-Elementary-School/
2600767,260858004409,04575,Wolfe Middle School,"Wolfe Middle School, a public school located in Center Line, MI, serves grades 6-8 in the Center Line Public Schools.",public,m,"6,7,8",8640 McKinley,Center Line,MI,26099,48015,(586) 510-2300,(586) 510-2319,Macomb County,42.48856,-83.017303,Center Line Public Schools,298,http://www.clps.org,https://www.greatschools.org/michigan/center-line/767-Wolfe-Middle-School/
2609646,260104708578,01849,Rising Stars Academy,"Rising Stars Academy, a charter school located in Center Line, MI, serves grades 12 & Ungraded in the Rising Stars Academy.",charter,h,"12,UG",23855 Lawrence Avenue,Center Line,MI,26099,48015,(586) 405-9473,,Macomb County,42.470154,-83.032135,Rising Stars Academy,1028,http://rising-stars-academy.org/,https://www.greatschools.org/michigan/center-line/9646-Rising-Stars-Academy/
2604596,02872048,01516,Guardian Angels School,"Guardian Angels School, a private school located in Clawson, MI, serves grades K-8 in the .",private,"e,m","KG,1,2,3,4,5,6,7,8",521 14 Mile Road,Clawson,MI,26125,48017,(248) 588-5545,(248) 589-7356,Oakland County,42.534496,-83.139099,,0,,https://www.greatschools.org/michigan/clawson/4596-Guardian-Angels-School/
2605330,00644974,06467,Japhet School,"Japhet School, a private school located in Clawson, MI, serves grades PK-8 in the .",private,"p,e,m","PK,TK,KG,1,2,3,4,5,6,7,8",839 South Crooks Road,Clawson,MI,26125,48017,(248) 585-9150,(248) 585-2040,Oakland County,42.525913,-83.164604,,0,www.japhetschool.org,https://www.greatschools.org/michigan/clawson/5330-Japhet-School/
2606689,A0104393,,Gateway Country Day,"Gateway Country Day, a private school located in Clawson, MI, serves grades PK-K in the .",private,"p,e","PK,KG",456 E 14 Mile Rd,Clawson,MI,26125,48017,(248) 589-0682,,Oakland,42.533218,-83.140419,,0,,https://www.greatschools.org/michigan/clawson/6689-Gateway-Country-Day/
2600850,260993004481,00710,Clawson High School,"Clawson High School, a public school located in Clawson, MI, serves grades 9-12 in the Clawson Public Schools.",public,h,"9,10,11,12",101 John M Avenue,Clawson,MI,26125,48017,(248) 655-4200,(248) 655-4205,Oakland County,42.535603,-83.148239,Clawson Public Schools,314,http://www.clawsonschools.org,https://www.greatschools.org/michigan/clawson/850-Clawson-High-School/
2600851,260993004482,00711,Clawson Middle School,"Clawson Middle School, a public school located in Clawson, MI, serves grades 6-8 in the Clawson Public Schools.",public,m,"6,7,8",150 John M Avenue,Clawson,MI,26125,48017,(248) 655-4200,(248) 655-4251,Oakland County,42.536633,-83.149155,Clawson Public Schools,314,http://www.clawsonschools.org,https://www.greatschools.org/michigan/clawson/851-Clawson-Middle-School/
2600852,260993004483,02023,Kenwood Elementary School,"Kenwood Elementary School, a public school located in Clawson, MI, serves grades PK-5 in the Clawson Public Schools.",public,"p,e","PK,KG,1,2,3,4,5",240 Nahma Avenue,Clawson,MI,26125,48017,(248) 655-3838,(248) 655-3802,Oakland County,42.530666,-83.15432,Clawson Public Schools,314,http://www.clawsonschools.org,https://www.greatschools.org/michigan/clawson/852-Kenwood-Elementary-School/
2600853,260993004484,02978,Paul A. Schalm School,"Paul A. Schalm School, a public school located in Clawson, MI, serves grades K-5 in the Clawson Public Schools.",public,e,"KG,1,2,3,4,5",940 North Selfridge Boulevard,Clawson,MI,26125,48017,(248) 655-4949,(248) 655-4947,Oakland County,42.541214,-83.158089,Clawson Public Schools,314,http://www.clawsonschools.org,https://www.greatschools.org/michigan/clawson/853-Paul-A.-Schalm-School/
2601316,261245004948,00268,Bellview Elementary School,"Bellview Elementary School, a public school located in Eastpointe, MI, serves grades 3-5 in the East Detroit Public Schools.",public,e,"3,4,5",15800 Bell Avenue,Eastpointe,MI,26099,48021,(586) 553-3100,(586) 553-3109,Macomb County,42.476734,-82.958122,East Detroit Public Schools,353,http://www.eastpointeschools.org,https://www.greatschools.org/michigan/eastpointe/1316-Bellview-Elementary-School/
2601318,261245004950,01003,East Detroit High School,"East Detroit High School, a public school located in Eastpointe, MI, serves grades 9-12 in the East Detroit Public Schools.",public,h,"9,10,11,12",15501 Couzens Avenue,Eastpointe,MI,26099,48021,(586) 533-3700,(586) 533-3709,Macomb County,42.463516,-82.96199,East Detroit Public Schools,353,http://www.eastpointeschools.org,https://www.greatschools.org/michigan/eastpointe/1318-East-Detroit-High-School/
2601321,261245004953,02009,Kelly Middle School,"Kelly Middle School, a public school located in Eastpointe, MI, serves grades 6-8 in the East Detroit Public Schools.",public,m,"6,7,8",24701 Kelly Road,Eastpointe,MI,26099,48021,(586) 533-3600,(586) 533-3609,Macomb County,42.477261,-82.928474,East Detroit Public Schools,353,http://www.eastpointeschools.org,https://www.greatschools.org/michigan/eastpointe/1321-Kelly-Middle-School/
2601323,261245004955,03074,Pleasantview  Elementary School,"Pleasantview  Elementary School, a public school located in Eastpointe, MI, serves grades 3-5 in the East Detroit Public Schools.",public,e,"3,4,5",16501 Toepfer Drive,Eastpointe,MI,26099,48021,(586) 533-3400,(586) 533-3409,Macomb County,42.458157,-82.950882,East Detroit Public Schools,353,http://www.eastpointeschools.org,https://www.greatschools.org/michigan/eastpointe/1323-Pleasantview--Elementary-School/
2613556,261245008766,03083,East Detroit Virtual Academy,"East Detroit Virtual Academy, a public school located in Eastpointe, MI, serves grades 6-12 in the East Detroit Public Schools.",public,"m,h","6,7,8,9,10,11,12",15501 Couzens Avenue,Eastpointe,MI,26099,48021,(586) 533-3700,,Macomb County,42.463516,-82.96199,East Detroit Public Schools,353,,https://www.greatschools.org/michigan/eastpointe/13556-East-Detroit-Virtual-Academy/
2613637,261245008832,03247,Eastpointe Alternative Center,"Eastpointe Alternative Center, a public school located in Eastpointe, MI, serves grades 8-12 in the East Detroit Public Schools.",public,"m,h","8,9,10,11,12",15501 Couzens Avenue,Eastpointe,MI,26099,48021,(586) 533-3708,,Macomb County,42.463516,-82.96199,East Detroit Public Schools,353,,https://www.greatschools.org/michigan/eastpointe/13637-Eastpointe-Alternative-Center/
2600158,260013600786,08337,Eaton Academy,"Eaton Academy, a charter school located in Eastpointe, MI, serves grades K-8 in the Eaton Academy.",charter,"e,m","KG,1,2,3,4,5,6,7,8",21450 Universal Avenue,Eastpointe,MI,26099,48021,(586) 777-1519,(586) 777-1527,Macomb County,42.456306,-82.957527,Eaton Academy,88,http://www.eaton-academy.com,https://www.greatschools.org/michigan/eastpointe/158-Eaton-Academy/
2603223,263222000633,08339,Koepsell Education Center,"Koepsell Education Center, a public school located in Eastpointe, MI, serves grades PK-5 in the South Lake Schools.",public,"p,e","PK,KG,1,2,3,4,5",21760 Raven Avenue,Eastpointe,MI,26099,48021,(586) 435-1500,(586) 445-4322,Macomb County,42.456768,-82.92923,South Lake Schools,659,http://www.solake.org,https://www.greatschools.org/michigan/eastpointe/3223-Koepsell-Education-Center/
2604310,00642503,03978,St Peter's Lutheran School,"St Peter's Lutheran School, a private school located in Eastpointe, MI, serves grades K-8 in the .",private,"e,m","KG,1,2,3,4,5,6,7,8",23000 Gratiot Avenue,Eastpointe,MI,26099,48021,(867) 776-3001,(586) 777-0347,Macomb County,42.467529,-82.955116,,0,stpeterslutheranchurch.net,https://www.greatschools.org/michigan/eastpointe/4310-St-Peters-Lutheran-School/
2605407,K9303117,,Advent Childrens Center,"Advent Childrens Center, a private school located in Eastpointe, MI, serves grades PK-K in the .",private,"p,e","PK,KG",21439 Kelly Road,Eastpointe,MI,26099,48021,(810) 773-3338,,Macomb,42.456001,-82.935699,,0,,https://www.greatschools.org/michigan/eastpointe/5407-Advent-Childrens-Center/
2605436,A0104187,,B & E Childcare/Barbara Serian,"B & E Childcare/Barbara Serian, a private school located in Eastpointe, MI, serves grades PK-K in the .",private,"p,e","PK,KG",22616 Petersburg,Eastpointe,MI,26099,48021,(586) 771-0901,,Macomb,42.4645,-82.926003,,0,,https://www.greatschools.org/michigan/eastpointe/5436-B--E-Childcare-Barbara-Serian/
2605447,A0105091,,Train Up A Child Christian Academy,"Train Up A Child Christian Academy, a private school located in Detroit, MI, serves grades PK-K in the .",private,"p,e","PK,KG",10340 W Seven Mile,Detroit,MI,26099,48021,(313) 861-1382,,Macomb,42.431301,-83.164703,,0,,https://www.greatschools.org/michigan/detroit/5447-Train-Up-A-Child-Christian-Academy/
2605628,261245000193,08184,Kellwood  School (Alternative),"Kellwood  School (Alternative), a public school located in Eastpointe, MI, serves grades 9-12 in the East Detroit Public Schools.",public,h,"9,10,11,12",23750 David Avenue,Eastpointe,MI,26099,48021,(586) 533-3900,(586) 533-3909,Macomb,42.470764,-82.943184,East Detroit Public Schools,353,http://www.eastdetroit.org,https://www.greatschools.org/michigan/eastpointe/5628-Kellwood--School-Alternative/
2609642,261245008244,00831,Crescentwood Elementary School,"Crescentwood Elementary School, a public school located in Eastpointe, MI, serves grades K-2 in the East Detroit Public Schools.",public,e,"KG,1,2",14500 CRESCENTWOOD AVE,Eastpointe,MI,26099,48021,(586) 533-3200,(586) 533-3209,Macomb County,42.459599,-82.972,East Detroit Public Schools,353,http://www.eastpointeschools.org,https://www.greatschools.org/michigan/warren/9642-Crescentwood-Elementary-School/
2609643,261245008234,00821,Forest Park Elementary,"Forest Park Elementary, a public school located in Eastpointe, MI, serves grades PK-2 in the East Detroit Public Schools.",public,"p,e","PK,KG,1,2",18361 Forest Avenue,Eastpointe,MI,26099,48021,(586) 533-3300,(586) 533-3309,Macomb County,42.475639,-82.931351,East Detroit Public Schools,353,http://www.eastpointeschools.org,https://www.greatschools.org/michigan/eastpointe/9643-Forest-Park-Elementary/
2603769,263660007273,02894,John F. Farrell-Emmett Elementary School,"John F. Farrell-Emmett Elementary School, a public school located in Emmett, MI, serves grades PK-5 in the Yale Public Schools.",public,"p,e","PK,KG,1,2,3,4,5",3300 Kinney Road,Emmett,MI,26147,48022,(810) 384-1300,(810) 384-8010,St Clair County,42.99482,-82.763992,Yale Public Schools,737,http://www.ypsd.us,https://www.greatschools.org/michigan/emmett/3769-John-F.-Farrell-Emmett-Elementary-School/
2606965,,,Farrell-Emmett Children's Center,"Farrell-Emmett Children's Center, a private school located in Emmett, MI, serves grades PK-K in the .",private,"p,e","PK,KG",3300 Kinney Road,Emmett,MI,26147,48022,(810) 384-8910,,St. Clair,42.996136,-82.764053,,0,,https://www.greatschools.org/michigan/emmett/6965-Farrell-Emmett-Childrens-Center/
2601309,261242004942,02934,Palms Elementary School,"Palms Elementary School, a public school located in IRA, MI, serves grades K-5 in the East China School District.",public,e,"KG,1,2,3,4,5",6101 PALMS RD,IRA,MI,26147,48023,(810) 676-1350,(810) 676-1360,St. Clair County,42.720795,-82.629013,East China School District,352,http://www.ecsd.us,https://www.greatschools.org/michigan/ira-township/1309-Palms-Elementary-School/
2600353,260279001069,08623,Francois Maconce Elementary School,"Francois Maconce Elementary School, a public school located in IRA, MI, serves grades PK-5 in the Anchor Bay School District.",public,"p,e","PK,KG,1,2,3,4,5",6300 CHURCH RD,IRA,MI,26147,48023,(586) 725-0284,(586) 725-2037,St. Clair County,42.713554,-82.691353,Anchor Bay School District,216,http://anchorbay.misd.net/schools/maconce/,https://www.greatschools.org/michigan/ira-township/353-Francois-Maconce-Elementary-School/
2600355,260279003997,00089,Anchor Bay High School,"Anchor Bay High School, a public school located in IRA, MI, serves grades 9-12 in the Anchor Bay School District.",public,h,"9,10,11,12",6319 COUNTY LINE RD,IRA,MI,26147,48023,(586) 648-2525,(586) 716-8306,St. Clair County,42.711697,-82.726433,Anchor Bay School District,216,http://www.anchorbay.misd.net/schools/high-school/,https://www.greatschools.org/michigan/ira-township/355-Anchor-Bay-High-School/
2604758,A9502312,08010,Country Meadows Montessori,"Country Meadows Montessori, a private school located in Fair Haven, MI, serves grades PK-K in the .",private,"p,e","PK,KG",8622 Dixie Highway,Fair Haven,MI,26147,48023,(586) 725-2042,,St. Clair,42.678707,-82.649391,,0,http://country-meadows-montessori.com/,https://www.greatschools.org/michigan/fair-haven/4758-Country-Meadows-Montessori/
2605944,00638279,00087,Immaculate Conception School,"Immaculate Conception School, a private school located in Ira, MI, serves grades PK-8 in the .",private,"p,e,m","PK,TK,KG,1,2,3,4,5,6,7,8",7043 Church Road,Ira,MI,26147,48023,(586) 725-0078,,St. Clair,42.691444,-82.68866,,0,,https://www.greatschools.org/michigan/ira/5944-Immaculate-Conception-School/
2613840,A1370895,,Beverly Hills Academy,"Beverly Hills Academy, a private school located in Beverly Hills, MI, serves grades PK-8 in the .",private,"p,e,m","PK,TK,KG,1,2,3,4,5,6,7,8",32605 Bellvine Trail,Beverly Hills,MI,26125,48025,(248) 433-9470,,Oakland County,42.527508,-83.259048,,0,,https://www.greatschools.org/michigan/beverly-hills/13840-Beverly-Hills-Academy/
2613857,A1501995,,Detroit Country Day Middle,"Detroit Country Day Middle, a private school located in Beverly Hills, MI, serves grades 5-8 in the .",private,"e,m","5,6,7,8",22400 Hillview Lane,Beverly Hills,MI,26125,48025,(248) 430-1677,,Oakland County,42.512505,-83.264526,,0,,https://www.greatschools.org/michigan/beverly-hills/13857-Detroit-Country-Day-Middle/
2613858,A1501994,,Detroit Country Day School,"Detroit Country Day School, a private school located in Beverly Hills, MI, serves grades PK-12 in the .",private,"p,e,m,h","PK,TK,KG,1,2,3,4,5,6,7,8,9,10,11,12",22305 West 13 Mile Road,Beverly Hills,MI,26125,48025,(248) 430-1071,,Oakland County,42.513603,-83.26532,,0,,https://www.greatschools.org/michigan/beverly-hills/13858-Detroit-Country-Day-School/
2604030,00638042,,Beverly Hills Academy,"Beverly Hills Academy, a private school located in Beverly Hills, MI, serves grades PK-8 in the .",private,"p,e,m","PK,KG,1,2,3,4,5,6,7,8",32605 Bellvine Trail,Beverly Hills,MI,26125,48025,(248) 647-8060,,Oakland,42.52779,-83.259132,,0,,https://www.greatschools.org/michigan/beverly-hills/4030-Beverly-Hills-Academy/
2604032,00638064,02910,Our Lady Queen of Martyrs School,"Our Lady Queen of Martyrs School, a private school located in Beverly Hills, MI, serves grades PK-8 in the .",private,"p,e,m","PK,TK,KG,1,2,3,4,5,6,7,8",32460 Pierce Street,Beverly Hills,MI,26125,48025,(248) 642-2616,(248) 642-3671,Oakland County,42.527527,-83.212868,,0,www.olqmcatholicschool.org,https://www.greatschools.org/michigan/beverly-hills/4032-Our-Lady-Queen-Of-Martyrs-School/
2604355,00643201,07783,Detroit Country Day Middle School,"Detroit Country Day Middle School, a private school located in Beverly Hills, MI, serves grades PK-12 in the .",private,"p,e,m,h","PK,TK,KG,1,2,3,4,5,6,7,8,9,10,11,12",22305 West 13 Mile Road,Beverly Hills,MI,26125,48025,(248) 430-1071,(248) 646-2458,Oakland County,42.513603,-83.26532,,0,,https://www.greatschools.org/michigan/beverly-hills/4355-Detroit-Country-Day-Middle-School/
2604648,A9103498,07390,Huda School and Montessori,"Huda School and Montessori, a private school located in Franklin, MI, serves grades PK-8 in the .",private,"p,e,m","PK,TK,KG,1,2,3,4,5,6,7,8",32220 Franklin Road,Franklin,MI,26125,48025,(248) 626-0900,(248) 626-7146,Oakland County,42.523682,-83.305069,,0,www.hudaschool.org,https://www.greatschools.org/michigan/franklin/4648-Huda-School-And-Montessori/
2605517,A0104202,,Beverly PS Kgplus Kidsclub,"Beverly PS Kgplus Kidsclub, a private school located in Beverly Hills, MI, serves grades PK-K in the .",private,"p,e","PK,KG",18305 Beverly Rd,Beverly Hills,MI,26125,48025,(248) 203-3158,,Oakland,42.5242,-83.227097,,0,,https://www.greatschools.org/michigan/beverly-hills/5517-Beverly-PS-Kgplus-Kidsclub/
2600563,260585004213,00292,Berkshire Middle School,"Berkshire Middle School, a public school located in Beverly Hills, MI, serves grades 6-8 in the Birmingham Public Schools.",public,m,"6,7,8",21707 West 14 Mile Road,Beverly Hills,MI,26125,48025,(248) 203-4703,(248) 203-4802,Oakland County,42.529549,-83.260048,Birmingham Public Schools,255,http://www.birmingham.k12.mi.us,https://www.greatschools.org/michigan/beverly-hills/563-Berkshire-Middle-School/
2600564,260585004214,00316,Beverly Elementary School,"Beverly Elementary School, a public school located in Beverly Hills, MI, serves grades K-5 in the Birmingham Public Schools.",public,e,"KG,1,2,3,4,5",18305 Beverly Road,Beverly Hills,MI,26125,48025,(248) 203-3164,(248) 203-3165,Oakland County,42.522556,-83.227463,Birmingham Public Schools,255,http://www.birmingham.k12.mi.us,https://www.greatschools.org/michigan/beverly-hills/564-Beverly-Elementary-School/
2600568,260585004218,01494,Greenfield Elementary School,"Greenfield Elementary School, a public school located in Beverly Hills, MI, serves grades K-5 in the Birmingham Public Schools.",public,e,"KG,1,2,3,4,5",31200 Fairfax Avenue,Beverly Hills,MI,26125,48025,(248) 203-3217,(248) 203-3218,Oakland County,42.519207,-83.205109,Birmingham Public Schools,255,http://www.birmingham.k12.mi.us,https://www.greatschools.org/michigan/beverly-hills/568-Greenfield-Elementary-School/
2600575,260585004227,05670,Bingham Farms Elementary School,"Bingham Farms Elementary School, a public school located in Bingham Farms, MI, serves grades PK-5 in the Birmingham Public Schools.",public,"p,e","PK,KG,1,2,3,4,5",23400 West 13 Mile Road,Bingham Farms,MI,26125,48025,(248) 203-3350,(248) 203-3394,Oakland County,42.516762,-83.274849,Birmingham Public Schools,255,http://www.birmingham.k12.mi.us,https://www.greatschools.org/michigan/bingham-farms/575-Bingham-Farms-Elementary-School/
2609539,,00907,Detroit Country Day Upper School,"Detroit Country Day Upper School, a private school located in Beverly Hills, MI, serves grades 9-12 in the .",private,h,"9,10,11,12",22305 West 13 Mile Rd,Beverly Hills,MI,26125,48025,(248) 646-7717,(248) 646-2458,Oakland,42.515942,-83.265366,,0,,https://www.greatschools.org/michigan/beverly-hills/9539-Detroit-Country-Day-Upper-School/
2609671,260106508541,01869,Nexus Academy of Royal Oak,"Nexus Academy of Royal Oak, a charter school located in Beverly Hills, MI, serves grades 9-12 in the Nexus Academy Of Royal Oak.",charter,h,"9,10,11,12",31333 Southfield Road,Beverly Hills,MI,26125,48025,(248) 593-8440,(248) 593-8264,Oakland,42.519794,-83.224083,Nexus Academy Of Royal Oak,1036,http://www.nexusacademyschool.com/royal-oak,https://www.greatschools.org/michigan/beverly-hills/9671-Nexus-Academy-Of-Royal-Oak/
2601544,261482005178,00978,Eisenhower Elementary School,"Eisenhower Elementary School, a public school located in Fraser, MI, serves grades PK-6 in the Fraser Public Schools.",public,"p,e","PK,KG,1,2,3,4,5,6",31275 Eveningside,Fraser,MI,26099,48026,(586) 439-6600,,Macomb County,42.526608,-82.940247,Fraser Public Schools,387,http://www.fraser.k12.mi.us/,https://www.greatschools.org/michigan/fraser/1544-Eisenhower-Elementary-School/
2601545,261482005179,01308,Fraser High School,"Fraser High School, a public school located in Fraser, MI, serves grades 9-12 in the Fraser Public Schools.",public,h,"9,10,11,12",34270 Garfield Road,Fraser,MI,26099,48026,(586) 439-7200,,Macomb County,42.550026,-82.947037,Fraser Public Schools,387,http://www.fraser.k12.mi.us/fps,https://www.greatschools.org/michigan/fraser/1545-Fraser-High-School/
2601547,261482005181,03145,Ralph Waldo Emerson Elementary School,"Ralph Waldo Emerson Elementary School, a public school located in Fraser, MI, serves grades K-6 in the Fraser Public Schools.",public,e,"KG,1,2,3,4,5,6",32151 Danna Street,Fraser,MI,26099,48026,(586) 439-6700,,Macomb County,42.532436,-82.95504,Fraser Public Schools,387,http://www.fraser.k12.mi.us/,https://www.greatschools.org/michigan/fraser/1547-Ralph-Waldo-Emerson-Elementary-School/
2601549,261482005183,04162,Thomas A. Edison Elementary School,"Thomas A. Edison Elementary School, a public school located in Fraser, MI, serves grades PK-6 in the Fraser Public Schools.",public,"p,e","PK,KG,1,2,3,4,5,6",17470 Sewel Avenue,Fraser,MI,26099,48026,(586) 439-6500,,Macomb County,42.540333,-82.944138,Fraser Public Schools,387,http://www.fraser.k12.mi.us/,https://www.greatschools.org/michigan/fraser/1549-Thomas-A.-Edison-Elementary-School/
2601551,261482005185,05957,Richards Middle School,"Richards Middle School, a public school located in Fraser, MI, serves grades 7-8 in the Fraser Public Schools.",public,m,"7,8",33500 Garfield Road,Fraser,MI,26099,48026,(586) 439-7400,,Macomb County,42.546505,-82.948395,Fraser Public Schools,387,http://www.fraser.k12.mi.us/,https://www.greatschools.org/michigan/fraser/1551-Richards-Middle-School/
2604309,00642489,03778,St John Lutheran School,"St John Lutheran School, a private school located in Fraser, MI, serves grades PK-8 in the .",private,"p,e,m","PK,TK,KG,1,2,3,4,5,6,7,8",16339 14 Mile Road,Fraser,MI,26099,48026,(586) 294-8740,(586) 294-9565,Macomb County,42.539288,-82.95562,,0,,https://www.greatschools.org/michigan/fraser/4309-St-John-Lutheran-School/
2605129,260027301308,08884,Arts Academy in the Woods,"Arts Academy in the Woods, a charter school located in Fraser, MI, serves grades 6-12 in the Arts Academy In The Woods.",charter,"m,h","6,7,8,9,10,11,12",32101 Caroline Street,Fraser,MI,26099,48026,(586) 294-0391,(586) 294-0617,Macomb County,42.532413,-82.951942,Arts Academy In The Woods,821,http://www.artsacad.net,https://www.greatschools.org/michigan/fraser/5129-Arts-Academy-In-The-Woods/
2613557,261803008776,02954,Viking Virtual Academy,"Viking Virtual Academy, a public school located in Hazel Park, MI, serves grades 9-12 in the Hazel Park, School District Of The City Of.",public,h,"9,10,11,12",23400 Hughes Avenue,Hazel Park,MI,26125,48030,(248) 658-5200,,Oakland County,42.465397,-83.090981,"Hazel Park, School District Of The City Of",435,http://www.hazelparkschools.org,https://www.greatschools.org/michigan/hazel-park/13557-Viking-Virtual-Academy/
2601879,261803005475,01616,Hazel Park High School,"Hazel Park High School, a public school located in Hazel Park, MI, serves grades 9-12 in the Hazel Park, School District Of The City Of.",public,h,"9,10,11,12",23400 Hughes Avenue,Hazel Park,MI,26125,48030,(248) 658-5100,(248) 544-5389,Oakland County,42.465397,-83.090981,"Hazel Park, School District Of The City Of",435,http://www.hazelparkschools.org,https://www.greatschools.org/michigan/hazel-park/1879-Hazel-Park-High-School/
2601881,261803005477,01753,Hoover Elementary School,"Hoover Elementary School, a public school located in Hazel Park, MI, serves grades PK-5 in the Hazel Park, School District Of The City Of.",public,"p,e","PK,KG,1,2,3,4,5",23720 Hoover Avenue,Hazel Park,MI,26125,48030,(248) 658-5300,(248) 586-5831,Oakland County,42.467129,-83.092155,"Hazel Park, School District Of The City Of",435,http://www.hazelpark.k12.mi.us/Schools/Hoover/hoover1.html,https://www.greatschools.org/michigan/hazel-park/1881-Hoover-Elementary-School/
2601887,261803005483,04259,United Oaks Elementary School,"United Oaks Elementary School, a public school located in Hazel Park, MI, serves grades K-5 in the Hazel Park, School District Of The City Of.",public,e,"KG,1,2,3,4,5",1001 East Harry Avenue,Hazel Park,MI,26125,48030,(248) 658-2400,(248) 542-3530,Oakland County,42.45668,-83.095253,"Hazel Park, School District Of The City Of",435,http://hazelpark.k12.mi.us,https://www.greatschools.org/michigan/hazel-park/1887-United-Oaks-Elementary-School/
2601888,261803005484,04422,Webster Elementary School,"Webster Elementary School, a public school located in Hazel Park, MI, serves grades K-5 in the Hazel Park, School District Of The City Of.",public,e,"KG,1,2,3,4,5",431 West Jarvis Avenue,Hazel Park,MI,26125,48030,(248) 658-5501,(248) 544-5421,Oakland,42.455738,-83.109123,"Hazel Park, School District Of The City Of",435,http://www.hazelpark.k12.mi.us/Schools/Webster/webster1.html,https://www.greatschools.org/michigan/hazel-park/1888-Webster-Elementary-School/
2605695,261803000962,07829,Hazel Park Advantage Alternative School,"Hazel Park Advantage Alternative School, a public school located in Hazel Park, MI, serves grades K-12 in the Hazel Park, School District Of The City Of.",public,"e,m,h","KG,1,2,3,4,5,6,7,8,9,10,11,12",1620 East Elza Avenue,Hazel Park,MI,26125,48030,(248) 658-5280,(248) 544-5391,Oakland County,42.451321,-83.087112,"Hazel Park, School District Of The City Of",435,http://www.hazelparkschools.org,https://www.greatschools.org/michigan/hazel-park/5695-Hazel-Park-Breakfast-Club/
2605696,261803001686,09362,Hazel Park Advantage Alternative School,"Hazel Park Advantage Alternative School, a public school located in Hazel Park, MI, serves grades K-12 in the Hazel Park, School District Of The City Of.",public,"e,m,h","KG,1,2,3,4,5,6,7,8,9,10,11,12",1620 East Elza Avenue,Hazel Park,MI,26125,48030,(248) 658-5270,,Oakland,42.451191,-83.087433,"Hazel Park, School District Of The City Of",435,http://www.hazelpark.k12.mi.us,https://www.greatschools.org/michigan/hazel-park/5696-Hazel-Park-Advantage-Alternative-School/
2605697,261803001691,09372,Hazel Park Junior High School,"Hazel Park Junior High School, a public school located in Hazel Park, MI, serves grades 6-8 in the Hazel Park, School District Of The City Of.",public,m,"6,7,8",22770 Highland Avenue,Hazel Park,MI,26125,48030,(248) 658-2300,(248) 658-2305,Oakland County,42.459877,-83.099045,"Hazel Park, School District Of The City Of",435,http://www.hazelparkschools.org,https://www.greatschools.org/michigan/hazel-park/5697-Hazel-Park-Junior-High-School/
2608710,261803001902,07680,Hazel Park Adult Education,"Hazel Park Adult Education, a public school located in Hazel Park, MI, serves grades 9-12 in the Hazel Park, School District Of The City Of.",public,h,"9,10,11,12",420 West 9 Mile Road,Hazel Park,MI,26125,48030,(248) 658-5600,(248) 544-5447,Oakland,42.46146,-83.108849,"Hazel Park, School District Of The City Of",435,http://www.hazelpark.k12.mi.us,https://www.greatschools.org/michigan/hazel-park/8710-Hazel-Park-Adult-Education/
2609055,260097208180,00482,Michigan Virtual Charter Academy,"Michigan Virtual Charter Academy, a charter school located in Hazel Park, MI, serves grades K-12 in the Michigan Virtual Charter Academy.",charter,"e,m,h","KG,1,2,3,4,5,6,7,8,9,10,11,12",1620 East Elza Avenue,Hazel Park,MI,26125,48030,(616) 309-1600,(616) 309-1608,Oakland County,42.451321,-83.087112,Michigan Virtual Charter Academy,955,http://mvca.k12.com/,https://www.greatschools.org/michigan/grand-rapids/9055-Michigan-Virtual-Charter-Academy/
2609235,261803008393,01611,Hazel Park Invest Alternative High School,"Hazel Park Invest Alternative High School, a public school located in Hazel Park, MI, serves grades 9-12 in the Hazel Park, School District Of The City Of.",public,h,"9,10,11,12",24131 South Chrysler Drive,Hazel Park,MI,26125,48030,(248) 658-5200,(248) 544-5447,Oakland County,42.469658,-83.110535,"Hazel Park, School District Of The City Of",435,,https://www.greatschools.org/michigan/hazel-park/9235-Hazel-Park-Invest-Alternative-High-School/
2609660,261803008345,01603,Hazel Park ACCESS Alternative School,"Hazel Park ACCESS Alternative School, a public school located in Hazel Park, MI, serves grades 9-12 in the Hazel Park, School District Of The City Of.",public,h,"9,10,11,12",1620 East Elza Avenue,Hazel Park,MI,26125,48030,(248) 658-5200,(248) 544-5447,Oakland County,42.451195,-83.087433,"Hazel Park, School District Of The City Of",435,,https://www.greatschools.org/michigan/hazel-park/9660-Hazel-Park-ACCESS-Alternative-School/
2609665,261803008563,02176,Michigan Cyber Academy,"Michigan Cyber Academy, a public school located in Hazel Park, MI, serves grades 9-12 in the Hazel Park, School District Of The City Of.",public,h,"9,10,11,12",1620 East Elza Avenue,Hazel Park,MI,26125,48030,(248) 658-5200,(248) 544-5447,Oakland County,42.451321,-83.087112,"Hazel Park, School District Of The City Of",435,http://www.hazelparkschools.org,https://www.greatschools.org/michigan/hazel-park/9665-Hazel-Park-Michigan-Online-High-School/
2613545,263231008774,02963,Southfield High School for the Arts and Technology,"Southfield High School for the Arts and Technology, a public school located in Southfield, MI, serves grades 9-12 in the Southfield Public School District.",public,h,"9,10,11,12",24675 Lahser Road,Southfield,MI,26125,48033,(248) 746-8606,,Oakland County,42.469475,-83.263306,Southfield Public School District,663,http://www.southfieldk12.org,https://www.greatschools.org/michigan/southfield/13545-Southfield-High-School-For-The-Arts-And-Technology/
2603250,263231006775,01425,Glenn W. Levey Middle School,"Glenn W. Levey Middle School, a public school located in Southfield, MI, serves grades 6-8 in the Southfield Public School District.",public,m,"6,7,8",25300 West Nine Mile Road,Southfield,MI,26125,48033,(248) 746-8740,(248) 746-8718,Oakland County,42.458305,-83.292191,Southfield Public School District,663,http://www.southfieldk12.org,https://www.greatschools.org/michigan/southfield/3250-Glenn-W.-Levey-Middle-School/
2605494,BB021240,,Metropolitan Academy / Detroit,"Metropolitan Academy / Detroit, a private school located in Southfield, MI, serves grades PK-5 in the .",private,"p,e","PK,KG,1,2,3,4,5",26400 Lahser Road,Southfield,MI,26125,48033,(248) 350-6990,,Oakland,42.481495,-83.260185,,0,,https://www.greatschools.org/michigan/southfield/5494-Metropolitan-Academy---Detroit/
2605571,260028401644,09292,Bradford Academy,"Bradford Academy, a charter school located in Southfield, MI, serves grades PK-12 in the Bradford Academy.",charter,"p,e,m,h","PK,KG,1,2,3,4,5,6,7,8,9,10,11,12",24218 Garner Street,Southfield,MI,26125,48033,(248) 351-0000,(248) 356-4770,Oakland County,42.463604,-83.283745,Bradford Academy,840,http://www.bradfordacademy.com,https://www.greatschools.org/michigan/southfield/5571-Bradford-Academy/
2605968,A0104535,,Kids Expectations,"Kids Expectations, a private school located in Southfield, MI, serves grades K in the .",private,e,KG,23800 W 10 Mile Road Ste 110,Southfield,MI,26163,48033,(248) 350-6990,,Wayne,42.472706,-83.27784,,0,,https://www.greatschools.org/michigan/southfield/5968-Kids-Expectations/
2606064,260029501726,09445,Crescent Academy Middle School,"Crescent Academy Middle School, a charter school located in Southfield, MI, serves grades 6-8 in the Crescent Academy.",charter,m,"6,7,8",26555 Franklin Road,Southfield,MI,26125,48033,(248) 423-4581,(248) 423-1027,Oakland County,42.482876,-83.288834,Crescent Academy,895,,https://www.greatschools.org/michigan/southfield/6064-Crescent-Academy-Middle-School/
2606098,260029601728,09449,Laurus Academy,"Laurus Academy, a charter school located in Southfield, MI, serves grades K-8 in the Laurus Academy.",charter,"e,m","KG,1,2,3,4,5,6,7,8",24590 Lahser Road,Southfield,MI,26125,48033,(248) 799-8401,(248) 415-1595,Oakland County,42.469284,-83.259758,Laurus Academy,909,http://laurus.heritageacademies.com/,https://www.greatschools.org/michigan/southfield/6098-Laurus-Academy/
2608226,A0104336,DC630077836,Early Impressions,"Early Impressions, a private school located in Southfield, MI, serves grades PK-1 in the .",private,"p,e","PK,KG,1",25000 West 10 Mile Road,Southfield,MI,26125,48033,(248) 357-1740,,Oakland,42.472488,-83.290794,,0,,https://www.greatschools.org/michigan/southfield/8226-Early-Impressions/
2609063,260097508190,00364,Taylor International Academy,"Taylor International Academy, a charter school located in Southfield, MI, serves grades K-8 in the Taylor International Academy.",charter,"e,m","KG,1,2,3,4,5,6,7,8",26555 Franklin Road,Southfield,MI,26125,48033,(248) 354-1500,(248) 354-1501,Oakland,42.482918,-83.290276,Taylor International Academy,958,http://www.taylorinternationalacademy.com,https://www.greatschools.org/michigan/southfield/9063-Taylor-International-Academy/
2609658,260029508444,01643,Crescent Academy Elementary,"Crescent Academy Elementary, a charter school located in Southfield, MI, serves grades 2-5 in the Crescent Academy.",charter,e,"2,3,4,5",25175 Code Road,Southfield,MI,26125,48033,(248) 281-6471,,Oakland County,42.472984,-83.265625,Crescent Academy,895,,https://www.greatschools.org/michigan/southfield/9658-Crescent-Academy-Elementary/
2603247,263231006771,00024,Adlai Stevenson Elementary School,"Adlai Stevenson Elementary School, a public school located in Southfield, MI, serves grades K-5 in the Southfield Public School District.",public,e,"KG,1,2,3,4,5",27777 Lahser Road,Southfield,MI,26125,48034,(248) 746-8840,(248) 746-8945,Oakland County,42.492657,-83.263344,Southfield Public School District,663,http://www.southfieldk12.org,https://www.greatschools.org/michigan/southfield/3247-Adlai-Stevenson-Elementary-School/
2604003,00637672,,St. Michael Elementary School,"St. Michael Elementary School, a private school located in Southfield, MI, serves grades K-8 in the .",private,"e,m","KG,1,2,3,4,5,6,7,8",25175 Code Road,Southfield,MI,26125,48034,(248) 356-6113,,Oakland,42.475601,-83.265602,,0,,https://www.greatschools.org/michigan/southfield/4003-St.-Michael-Elementary-School/
2604515,01614111,06018,Southfield Christian School,"Southfield Christian School, a private school located in Southfield, MI, serves grades PK-12 in the .",private,"p,e,m,h","PK,KG,1,2,3,4,5,6,7,8,9,10,11,12",28650 Lahser Road,Southfield,MI,26125,48034,(248) 357-3660,(248) 356-2810,Oakland,42.4981,-83.261841,,0,www.southfieldchristian.org,https://www.greatschools.org/michigan/southfield/4515-Southfield-Christian-School/
2604673,A9103547,07111,Oak Montessori Center,"Oak Montessori Center, a private school located in Southfield, MI, serves grades K-8 in the .",private,"e,m","KG,1,2,3,4,5,6,7,8",25175 Code Road,Southfield,MI,26125,48034,(248) 355-1311,,Oakland,42.475601,-83.265602,,0,,https://www.greatschools.org/michigan/southfield/4673-Oak-Montessori-Center/
2609085,,,Global Christian School Online,"Global Christian School Online, a private school located in Southfield, MI, serves grades 9-12 in the .",private,h,"9,10,11,12",28650 Lahser Road,Southfield,MI,26125,48034,(248) 357-3660,(248) 256-2810,Oakland,42.498749,-83.261871,,0,,https://www.greatschools.org/michigan/southfield/9085-Global-Christian-School-Online/
2613514,261008008749,02907,Clintondale Virtual Academy,"Clintondale Virtual Academy, a public school located in Clinton Township, MI, serves grades K-12 in the Clintondale Community Schools.",public,"e,m,h","KG,1,2,3,4,5,6,7,8,9,10,11,12",35100 Little Mack Avenue,Clinton Township,MI,26099,48035,(800) 297-2119,,Macomb County,42.555725,-82.90905,Clintondale Community Schools,317,http://www.clintondaleschools.net,https://www.greatschools.org/michigan/clinton-township/13514-Clintondale-Virtual-Academy/
2613542,260021108769,03028,Huron Academy (Grades 3-7),"Huron Academy (Grades 3-7), a charter school located in Clinton Township, MI, serves grades 3-8 in the Huron Academy.",charter,"e,m","3,4,5,6,7,8",36301 Utica Road,Clinton Township,MI,26099,48035,(586) 690-8180,,Macomb County,42.562889,-82.966972,Huron Academy,162,http://www.huronacademy.org,https://www.greatschools.org/michigan/clinton-township/13542-Huron-Academy-Grades-3-7/
2601543,261482005177,00955,Salk Elementary School,"Salk Elementary School, a public school located in Clinton Township, MI, serves grades K-6 in the Fraser Public Schools.",public,e,"KG,1,2,3,4,5,6",17601 15 Mile Road,Clinton Township,MI,26099,48035,(586) 439-6800,(586) 439-6801,Macomb County,42.55534,-82.941147,Fraser Public Schools,387,http://www.fraser.k12.mi.us/,https://www.greatschools.org/michigan/clinton-township/1543-Salk-Elementary-School/
2601550,261482005184,04904,Walt Disney Elementary School,"Walt Disney Elementary School, a public school located in Clinton Township, MI, serves grades K-6 in the Fraser Public Schools.",public,e,"KG,1,2,3,4,5,6",36155 Kelly Road,Clinton Township,MI,26099,48035,(586) 439-6400,,Macomb County,42.562035,-82.932899,Fraser Public Schools,387,http://www.fraser.k12.mi.us/,https://www.greatschools.org/michigan/clinton-township/1550-Walt-Disney-Elementary-School/
2600232,260021101145,08725,Huron Academy,"Huron Academy, a charter school located in Clinton Township, MI, serves grades PK-12 in the Huron Academy.",charter,"p,e,m,h","PK,KG,1,2,3,4,5,6,7,8,9,10,11,12",36301 UTICA RD,Clinton Township,MI,26099,48035,(586) 446-9170,(586) 446-9173,Macomb County,42.567799,-83.013298,Huron Academy,162,http://www.huronacademy.org,https://www.greatschools.org/michigan/sterling-heights/232-Huron-Academy/
2602378,262187005919,06488,Tenniswood Elementary School,"Tenniswood Elementary School, a public school located in Clinton Township, MI, serves grades K-5 in the L'anse Creuse Public Schools.",public,e,"KG,1,2,3,4,5",23450 Glenwood Street,Clinton Township,MI,26099,48035,(586) 493-5640,(586) 493-5645,Macomb County,42.559612,-82.876617,L'anse Creuse Public Schools,503,http://www.lc-ps.org,https://www.greatschools.org/michigan/clinton-township/2378-Tenniswood-Elementary-School/
2603977,00637344,04024,St. Thecla Catholic School,"St. Thecla Catholic School, a private school located in Clinton Township, MI, serves grades PK-8 in the .",private,"p,e,m","PK,TK,KG,1,2,3,4,5,6,7,8",20762 South Nunneley Road,Clinton Township,MI,26099,48035,(586) 791-2170,(586) 791-2356,Macomb County,42.567917,-82.909401,,0,,https://www.greatschools.org/michigan/clinton-township/3977-St.-Thecla-Catholic-School/
2604308,00642478,03846,St Luke Lutheran Church & School,"St Luke Lutheran Church & School, a private school located in Clinton Township, MI, serves grades PK-7 in the .",private,"p,e,m","PK,TK,KG,1,2,3,4,5,6,7",21400 South Nunneley Road,Clinton Township,MI,26099,48035,(586) 791-1151,(586) 791-1880,Macomb County,42.568066,-82.903168,,0,www.stlukemi.org,https://www.greatschools.org/michigan/clinton-township/4308-St-Luke-Lutheran-Church--School/
2600861,261008004491,00731,Clintondale High School,"Clintondale High School, a public school located in Clinton Township, MI, serves grades 9-12 in the Clintondale Community Schools.",public,h,"9,10,11,12",35200 Little Mack Avenue,Clinton Township,MI,26099,48035,(586) 791-6300,(586) 790-7645,Macomb County,42.556259,-82.909111,Clintondale Community Schools,317,http://www.clintondaleschools.net,https://www.greatschools.org/michigan/clinton-township/861-Clintondale-High-School/
2600862,261008004493,04103,Charles C. McGlinnen School,"Charles C. McGlinnen School, a public school located in Clinton Township, MI, serves grades PK-5 in the Clintondale Community Schools.",public,"p,e","PK,KG,1,2,3,4,5",21415 Sunnyview Street,Clinton Township,MI,26099,48035,(586) 791-3400,(586) 790-7639,Macomb County,42.562786,-82.902451,Clintondale Community Schools,317,http://www.clintondaleschools.net,https://www.greatschools.org/michigan/clinton-township/862-Charles-C.-McGlinnen-School/
2600863,261008004494,05031,Clintondale Middle School,"Clintondale Middle School, a public school located in Clinton Township, MI, serves grades 6-8 in the Clintondale Community Schools.",public,m,"6,7,8",35300 Little Mack Avenue,Clinton Township,MI,26099,48035,(586) 791-6300,(586) 790-7642,Macomb County,42.556961,-82.90995,Clintondale Community Schools,317,http://www.clintondaleschools.net,https://www.greatschools.org/michigan/clinton-township/863-Clintondale-Middle-School/
2600864,261008004495,06183,Rainbow Elementary School,"Rainbow Elementary School, a public school located in Clinton Township, MI, serves grades PK-5 in the Clintondale Community Schools.",public,"p,e","PK,KG,1,2,3,4,5",33749 Wurfel Street,Clinton Township,MI,26099,48035,(586) 791-3500,(586) 790-7640,Macomb County,42.545059,-82.914696,Clintondale Community Schools,317,http://www.clintondaleschools.net,https://www.greatschools.org/michigan/clinton-township/864-Rainbow-Elementary-School/
2600865,261008004496,06767,Robbie Hall Parker School,"Robbie Hall Parker School, a public school located in Clinton Township, MI, serves grades PK-5 in the Clintondale Community Schools.",public,"p,e","PK,KG,1,2,3,4,5",22055 Quinn Road,Clinton Township,MI,26099,48035,(586) 791-6900,(586) 790-7641,Macomb County,42.548347,-82.893776,Clintondale Community Schools,317,http://www.clintondaleschools.net,https://www.greatschools.org/michigan/clinton-township/865-Robbie-Hall-Parker-School/
2608707,261008001881,07669,iCampus Virtual Learning School,"iCampus Virtual Learning School, a public school located in Clinton Township, MI, serves grades K-12 in the Clintondale Community Schools.",public,"e,m,h","KG,1,2,3,4,5,6,7,8,9,10,11,12",22280 East Price Drive,Clinton Township,MI,26099,48035,(586) 790-2756,,Macomb County,42.562317,-82.891319,Clintondale Community Schools,317,,https://www.greatschools.org/michigan/clinton-township/8707-Continuing-Education-Center/
2604307,00642467,04214,Trinity Lutheran School,"Trinity Lutheran School, a private school located in Clinton Township, MI, serves grades K-8 in the .",private,"e,m","KG,1,2,3,4,5,6,7,8",38900 Harper,Clinton Township,MI,26099,48036,(586) 468-8511,(586) 468-1226,Macomb County,42.583344,-82.867004,,0,,https://www.greatschools.org/michigan/clinton-township/4307-Trinity-Lutheran-School/
2604450,00645606,06320,Faith Christian School,"Faith Christian School, a private school located in Clinton Township, MI, serves grades K-12 in the .",private,"e,m,h","KG,1,2,3,4,5,6,7,8,9,10,11,12",23130 North Remick Drive,Clinton Township,MI,26099,48036,(586) 783-9630,(586) 745-9037,Macomb County,42.573528,-82.883156,,0,http://www.faithpatriots.org,https://www.greatschools.org/michigan/clinton-township/4450-Faith-Christian-School/
2605730,262187000628,06550,Frederick V. Pankow Center,"Frederick V. Pankow Center, a public school located in Clinton Township, MI, serves grades 9-12 in the L'anse Creuse Public Schools.",public,h,"9,10,11,12",24600 Frederick Pankow Boulevard,Clinton Township,MI,26099,48036,(586) 783-6570,,Macomb County,42.620586,-82.858757,L'anse Creuse Public Schools,503,http://www.lc-ps.org,https://www.greatschools.org/michigan/clinton-township/5730-Frederick-V-Pankow-Center/
2605884,268072000620,01376,Neil E. Reid High School,"Neil E. Reid High School, a public school located in Clinton Township, MI, serves grades 9-12 in the Macomb Independent School District.",public,h,"9,10,11,12",37701 Harper Avenue,Clinton Township,MI,26099,48036,(586) 469-1590,(586) 469-8173,Macomb County,42.574566,-82.872475,Macomb Independent School District,773,http://www.misd.net,https://www.greatschools.org/michigan/clinton-township/5884-Neil-E.-Reid-High-School/
2605887,268072001618,09207,Auxiliary Preschool and Services Center,"Auxiliary Preschool and Services Center, a public school located in Clinton Township, MI, serves grades Ungraded in the Macomb Independent School District.",public,"e,m,h",UG,37623 Garfield Road,Clinton Township,MI,26099,48036,(586) 412-2600,,Macomb County,42.573082,-82.952255,Macomb Independent School District,773,http://www.misd.net,https://www.greatschools.org/michigan/clinton-township/5887-Auxiliary-Preschool-And-Services-Center/
2600822,260957004459,05326,Ottawa Elementary School,"Ottawa Elementary School, a public school located in Clinton Township, MI, serves grades PK-5 in the Chippewa Valley Schools.",public,"p,e","PK,KG,1,2,3,4,5",18601 MILLAR RD,Clinton Township,MI,26099,48036,(586) 723-6600,(586) 723-6601,Macomb County,42.573078,-82.930038,Chippewa Valley Schools,309,http://www.chippewavalleyschools.org/schools/elementary-schools/ottawa/,https://www.greatschools.org/michigan/clinton-township/822-Ottawa-Elementary-School/
2600823,260957004460,05762,Algonquin Middle School,"Algonquin Middle School, a public school located in Clinton Township, MI, serves grades 6-8 in the Chippewa Valley Schools.",public,m,"6,7,8",19150 BRIARWOOD LN,Clinton Township,MI,26099,48036,(586) 723-3500,(586) 723-3501,Macomb County,42.572052,-82.922493,Chippewa Valley Schools,309,http://www.chippewavalleyschools.org,https://www.greatschools.org/michigan/clinton-township/823-Algonquin-Middle-School/
2608723,262187002057,07833,L'anse Creuse-Mount Clemens Center For Lifelong Le,"L'anse Creuse-Mount Clemens Center For Lifelong Le, a public school located in Clinton Township, MI, serves grades 9-12 in the L'anse Creuse Public Schools.",public,h,"9,10,11,12",24001 FREDERICK PANKOW BLVD,Clinton Township,MI,26099,48036,(586) 783-6420,(586) 783-6423,Macomb County,42.621979,-82.864159,L'anse Creuse Public Schools,503,http://www.lc-ps.org,https://www.greatschools.org/michigan/mount-clemens/8723-Lanse-Creuse-Mount-Clemens-Center-For-Lifelong-Le/
2600121,260010100637,08051,Macomb Academy,"Macomb Academy, a charter school located in Clinton Township, MI, serves grades 12 & Ungraded in the Macomb Academy.",charter,h,"12,UG",39092 Garfield Road,Clinton Township,MI,26099,48038,(586) 228-2201,(586) 228-2210,Macomb County,42.585037,-82.951157,Macomb Academy,54,http://macombacademy.net/,https://www.greatschools.org/michigan/clinton-township/121-Macomb-Academy/
2613881,A1502037,,Montessori Children's Academy,"Montessori Children's Academy, a private school located in Clinton, MI, serves grades PK-6 in the .",private,"p,e","PK,TK,KG,1,2,3,4,5,6",43521 ROMEO PLANK RD,Clinton,MI,26099,48038,(586) 286-4566,,MACOMB,42.59766,-82.9394,,0,,https://www.greatschools.org/michigan/clinton/13881-Montessori-Childrens-Academy/
2604740,A9303520,05112,Montessori Childrens Academy,"Montessori Childrens Academy, a private school located in Clinton Township, MI, serves grades PK-6 in the .",private,"p,e","PK,TK,KG,1,2,3,4,5,6",43521 Romeo Plank Road,Clinton Township,MI,26099,48038,(586) 286-4566,(586) 286-4720,Macomb County,42.617313,-82.93425,,0,http://www.montessori-childrens-academy.org,https://www.greatschools.org/michigan/clinton-township/4740-Montessori-Childrens-Academy/
2605882,268072000618,01350,Lutz School For Work Experience,"Lutz School For Work Experience, a public school located in Clinton Township, MI, serves grades Ungraded in the Macomb Independent School District.",public,"e,m,h",UG,19600 Cass Avenue,Clinton Township,MI,26099,48038,(586) 286-0230,(586) 286-0928,Macomb County,42.606709,-82.922264,Macomb Independent School District,773,http://www.misd.net,https://www.greatschools.org/michigan/clinton-township/5882-Lutz-School-For-Work-Experience/
2600813,260957000200,07986,Cherokee Elementary School,"Cherokee Elementary School, a public school located in Clinton Township, MI, serves grades PK-5 in the Chippewa Valley Schools.",public,"p,e","PK,KG,1,2,3,4,5",42900 RIVERGATE DR,Clinton Township,MI,26099,48038,(586) 723-4800,(586) 723-4801,Macomb County,42.613735,-82.921135,Chippewa Valley Schools,309,http://www.chippewavalleyschools.org/schools/elementary-schools/cherokee/,https://www.greatschools.org/michigan/clinton-township/813-Cherokee-Elementary-School/
2600817,260957004454,00679,Chippewa Valley High School,"Chippewa Valley High School, a public school located in Clinton Township, MI, serves grades 9-12 in the Chippewa Valley Schools.",public,h,"9,10,11,12",18300 19 MILE RD,Clinton Township,MI,26099,48038,(586) 723-2300,(586) 723-2301,Macomb County,42.611897,-82.938606,Chippewa Valley Schools,309,http://www.chippewavalleyschools.org/schools/high-schools/cvhs/,https://www.greatschools.org/michigan/clinton-township/817-Chippewa-Valley-High-School/
2600819,260957004456,00729,Wyandot Middle School,"Wyandot Middle School, a public school located in Clinton Township, MI, serves grades 6-8 in the Chippewa Valley Schools.",public,m,"6,7,8",39490 GARFIELD,Clinton Township,MI,26099,48038,(586) 723-4202,(586) 723-4201,Macomb County,42.587471,-82.950195,Chippewa Valley Schools,309,http://www.chippewavalleyschools.org/schools/middle-schools/wyandot/,https://www.greatschools.org/michigan/clinton-township/819-Wyandot-Middle-School/
2600824,260957004461,06359,Huron Elementary School,"Huron Elementary School, a public school located in Clinton Township, MI, serves grades PK-5 in the Chippewa Valley Schools.",public,"p,e","PK,KG,1,2,3,4,5",15800 TERRA BELLA ST,Clinton Township,MI,26099,48038,(586) 723-5800,(586) 723-5801,Macomb County,42.591335,-82.964432,Chippewa Valley Schools,309,http://www.chippewavalleyschools.org/schools/elementary-schools/huron/,https://www.greatschools.org/michigan/clinton-township/824-Huron-Elementary-School/
2600825,260957004462,06588,Miami Elementary School,"Miami Elementary School, a public school located in Clinton Township, MI, serves grades PK-5 in the Chippewa Valley Schools.",public,"p,e","PK,KG,1,2,3,4,5",41290 KENTVALE DR,Clinton Township,MI,26099,48038,(586) 723-6000,(586) 723-6001,Macomb County,42.60075,-82.959595,Chippewa Valley Schools,309,http://www.chippewavalleyschools.org/schools/elementary-schools/miami/,https://www.greatschools.org/michigan/clinton-township/825-Miami-Elementary-School/
2600827,260957007514,07370,Erie Elementary School,"Erie Elementary School, a public school located in Clinton Township, MI, serves grades PK-5 in the Chippewa Valley Schools.",public,"p,e","PK,KG,1,2,3,4,5",42276 ROMEO PLANK RD,Clinton Township,MI,26099,48038,(586) 723-5400,(586) 723-5401,Macomb County,42.608593,-82.930992,Chippewa Valley Schools,309,http://www.chippewavalleyschools.org/schools/elementary-schools/erie/,https://www.greatschools.org/michigan/clinton-township/827-Erie-Elementary-School/
2608731,260957001803,07984,Chippewa Valley Adult And Mohegan Alt. Educ.,"Chippewa Valley Adult And Mohegan Alt. Educ., a public school located in Clinton Township, MI, serves grades 9-12 in the Chippewa Valley Schools.",public,h,"9,10,11,12",19230 CASS AVE,Clinton Township,MI,26099,48038,(586) 723-2080,(586) 723-2051,Macomb County,42.609081,-82.927002,Chippewa Valley Schools,309,http://www.chippewavalleyschools.org/schools/high-schools/mhs/,https://www.greatschools.org/michigan/clinton-township/8731-Chippewa-Valley-Adult-And-Mohegan-Alt.-Educ./
2608849,260957007865,09886,International  Academy Of Macomb,"International  Academy Of Macomb, a public school located in Clinton Township, MI, serves grades 9-12 in the Chippewa Valley Schools.",public,h,"9,10,11,12",42755 ROMEO PLANK RD,Clinton Township,MI,26099,48038,(586) 723-7200,,Macomb County,42.611599,-82.934303,Chippewa Valley Schools,309,http://www.iamacomb.org,https://www.greatschools.org/michigan/clinton-township/8849-International--Academy-Of-Macomb/
2608996,262187008075,00060,Dianne M. Pellerin Center,"Dianne M. Pellerin Center, a public school located in Clinton Township, MI, serves grades 9-12 in the L'anse Creuse Public Schools.",public,h,"9,10,11,12",24001 F V PANKOW BLVD,Clinton Township,MI,26099,48038,(586) 783-6420,(586) 783-6423,Macomb County,42.621979,-82.864159,L'anse Creuse Public Schools,503,http://www.lc-ps.org/Schools/AdultEd/,https://www.greatschools.org/michigan/clinton-township/8996-Dianne-M.-Pellerin-Center/
2601305,261242004938,01433,Belle River Elementary School,"Belle River Elementary School, a public school located in Marine City, MI, serves grades K-5 in the East China School District.",public,e,"KG,1,2,3,4,5",1601 Chartier Road,Marine City,MI,26147,48039,(810) 676-1150,(810) 676-1160,St Clair County,42.707489,-82.510521,East China School District,352,http://www.ecsd.us,https://www.greatschools.org/michigan/marine-city/1305-Belle-River-Elementary-School/
2601307,261242004940,02375,Marine City Middle School,"Marine City Middle School, a public school located in Marine City, MI, serves grades 6-8 in the East China School District.",public,m,"6,7,8",6373 King Road,Marine City,MI,26147,48039,(810) 676-1201,(810) 676-1225,St Clair County,42.714272,-82.50573,East China School District,352,http://www.ecsd.us,https://www.greatschools.org/michigan/marine-city/1307-Marine-City-Middle-School/
2601308,261242004941,02376,Marine City High School,"Marine City High School, a public school located in Marine City, MI, serves grades 9-12 in the East China School District.",public,h,"9,10,11,12",1085 Ward Street,Marine City,MI,26147,48039,(810) 676-1900,(810) 676-1925,St Clair County,42.71423,-82.507057,East China School District,352,http://www.ecsd.us,https://www.greatschools.org/michigan/marine-city/1308-Marine-City-High-School/
2603935,00636511,01717,Holy Cross Catholic School,"Holy Cross Catholic School, a private school located in Marine City, MI, serves grades PK-8 in the .",private,"p,e,m","PK,TK,KG,1,2,3,4,5,6,7,8",618 South Water Street,Marine City,MI,26147,48039,(810) 765-3591,(810) 765-9074,St Clair County,42.713043,-82.495155,,0,http://www.holycrossonline.net/school,https://www.greatschools.org/michigan/marine-city/3935-Holy-Cross-Catholic-School/
2605033,261242001412,08924,Riverview East High School,"Riverview East High School, a public school located in Marine City, MI, serves grades 9-12 in the East China School District.",public,h,"9,10,11,12",6373 King Road,Marine City,MI,26147,48039,(810) 676-1280,(810) 676-1281,St Clair County,42.714272,-82.50573,East China School District,352,http://www.ecsd.us,https://www.greatschools.org/michigan/marine-city/5033-Riverview-East-High-School/
2606294,A9103434,06978,Cardinal Mooney Catholic School,"Cardinal Mooney Catholic School, a private school located in Marine City, MI, serves grades 9-12 in the .",private,h,"9,10,11,12",660 South Water Street,Marine City,MI,26147,48039,(810) 765-8825,(810) 765-7164,St Clair County,42.712132,-82.495155,,0,,https://www.greatschools.org/michigan/marine-city/6294-Cardinal-Mooney-Catholic-School/
2602449,262304000719,08355,Morton Elementary School,"Morton Elementary School, a public school located in Marysville, MI, serves grades PK-5 in the Marysville Public Schools.",public,"p,e","PK,KG,1,2,3,4,5",920 Lynwood Street,Marysville,MI,26147,48040,(810) 364-2990,(810) 364-5983,St Clair County,42.920708,-82.469574,Marysville Public Schools,523,http://www.marysvilleschools.us,https://www.greatschools.org/michigan/marysville/2449-Morton-Elementary-School/
2602450,262304005988,02414,Marysville Middle School,"Marysville Middle School, a public school located in Marysville, MI, serves grades 6-8 in the Marysville Public Schools.",public,m,"6,7,8",400 Collard Drive,Marysville,MI,26147,48040,(810) 364-6336,(810) 364-4456,St Clair County,42.913204,-82.475868,Marysville Public Schools,523,http://www.marysvilleschools.us,https://www.greatschools.org/michigan/marysville/2450-Marysville-Middle-School/
2602451,262304005989,02416,Marysville High School,"Marysville High School, a public school located in Marysville, MI, serves grades 9-12 in the Marysville Public Schools.",public,h,"9,10,11,12",555 Huron Boulevard,Marysville,MI,26147,48040,(810) 364-7161,(810) 364-8878,St Clair County,42.911182,-82.475571,Marysville Public Schools,523,http://www.marysvilleschools.us,https://www.greatschools.org/michigan/marysville/2451-Marysville-High-School/
2602452,262304005990,02418,Washington Elementary School,"Washington Elementary School, a public school located in Marysville, MI, serves grades PK-5 in the Marysville Public Schools.",public,"p,e","PK,KG,1,2,3,4,5",905 16th Street,Marysville,MI,26147,48040,(810) 364-7101,(810) 364-4456,St Clair County,42.905926,-82.487762,Marysville Public Schools,523,http://www.marysvilleschools.us,https://www.greatschools.org/michigan/marysville/2452-Washington-Elementary-School/
2602453,262304005991,02419,Gardens Elementary School,"Gardens Elementary School, a public school located in Marysville, MI, serves grades PK-5 in the Marysville Public Schools.",public,"p,e","PK,KG,1,2,3,4,5",1076 6th Street,Marysville,MI,26147,48040,(810) 364-7141,(810) 364-2987,St Clair County,42.921837,-82.491913,Marysville Public Schools,523,http://www.marysvilleschools.us,https://www.greatschools.org/michigan/marysville/2453-Gardens-Elementary-School/
2604788,A9702001,,Blue Water SDA Elementary School,"Blue Water SDA Elementary School, a private school located in Marysville, MI, serves grades 4-8 in the .",private,"e,m","4,5,6,7,8",1365 6th Street,Marysville,MI,26147,48040,(810) 364-2770,,St. Clair,42.920815,-82.495102,,0,,https://www.greatschools.org/michigan/marysville/4788-Blue-Water-SDA-Elementary-School/
2605917,268094000264,03376,Woodland Developmental Center,"Woodland Developmental Center, a public school located in Marysville, MI, serves grades PK-12 & Ungraded in the St. Clair County Regional Educational Service Agency.",public,"p,e,m,h","PK,KG,1,2,3,4,5,6,7,8,9,10,11,12,UG",499 Range Road,Marysville,MI,26147,48040,(810) 364-8990,(810) 364-3251,St Clair County,42.917637,-82.501678,St. Clair County Regional Educational Service Agency,878,http://www.sccresa.org,https://www.greatschools.org/michigan/marysville/5917-Woodland-Developmental-Center/
2605918,268094000717,06543,Technical Education Center,"Technical Education Center, a public school located in Marysville, MI, serves grades 11-12 in the St. Clair County Regional Educational Service Agency.",public,h,"11,12",499 Range Road,Marysville,MI,26147,48040,(810) 364-8990,(810) 364-8139,St Clair County,42.917637,-82.501678,St. Clair County Regional Educational Service Agency,878,http://www.sccresa.org,https://www.greatschools.org/michigan/marysville/5918-Technical-Education-Center/
2609067,260096808090,00195,Virtual Learning Academyof St. Clair County,"Virtual Learning Academyof St. Clair County, a charter school located in Marysville, MI, serves grades 6-12 in the Virtual Learning Academy Of St. Clair County.",charter,"m,h","6,7,8,9,10,11,12",499 Range Road,Marysville,MI,26147,48040,(810) 455-4480,(810) 364-7474,St Clair County,42.917637,-82.501678,Virtual Learning Academy Of St. Clair County,961,http://stlcairvlc.ss12.sharpschool.com/,https://www.greatschools.org/michigan/marysville/9067-Virtual-Learning-Academyof-St-Clair-County/
2602491,262349006025,05673,Memphis High School,"Memphis High School, a public school located in Memphis, MI, serves grades 6-12 in the Memphis Community Schools.",public,"m,h","6,7,8,9,10,11,12",34130 Bordman Road,Memphis,MI,26099,48041,(810) 392-2186,(810) 392-2083,Macomb County,42.893757,-82.777885,Memphis Community Schools,532,http://www.memphisk12.org,https://www.greatschools.org/michigan/memphis/2491-Memphis-High-School/
2602492,262349006026,06672,Memphis Elementary School,"Memphis Elementary School, a public school located in Memphis, MI, serves grades PK-5 in the Memphis Community Schools.",public,"p,e","PK,KG,1,2,3,4,5",34165 Bordman Road,Memphis,MI,26147,48041,(810) 392-2125,(810) 392-2324,St Clair County,42.897129,-82.777573,Memphis Community Schools,532,http://www.memphisk12.org,https://www.greatschools.org/michigan/memphis/2492-Memphis-Elementary-School/
2602369,262187005908,00145,Atwood Elementary School,"Atwood Elementary School, a public school located in Macomb, MI, serves grades K-5 in the L'anse Creuse Public Schools.",public,e,"KG,1,2,3,4,5",45690 North Avenue,Macomb,MI,26099,48042,(586) 493-5250,(586) 493-5255,Macomb County,42.634361,-82.874245,L'anse Creuse Public Schools,503,http://www.lc-ps.org,https://www.greatschools.org/michigan/macomb/2369-Atwood-Elementary-School/
2602371,262187005910,02060,L'anse Creuse Middle School - North,"L'anse Creuse Middle School - North, a public school located in Macomb, MI, serves grades 6-8 in the L'anse Creuse Public Schools.",public,m,"6,7,8",46201 Fairchild Road,Macomb,MI,26099,48042,(586) 493-5260,(586) 493-5265,Macomb County,42.639542,-82.865913,L'anse Creuse Public Schools,503,http://www.lc-ps.org,https://www.greatschools.org/michigan/macomb/2371-Lanse-Creuse-Middle-School---North/
2602377,262187005918,06487,L'anse Creuse High School - North,"L'anse Creuse High School - North, a public school located in Macomb, MI, serves grades 9-12 in the L'anse Creuse Public Schools.",public,h,"9,10,11,12",23700 21 Mile Road,Macomb,MI,26099,48042,(586) 493-5270,(586) 493-5275,Macomb County,42.638603,-82.8703,L'anse Creuse Public Schools,503,http://www.lc-ps.org,https://www.greatschools.org/michigan/macomb/2377-Lanse-Creuse-High-School---North/
2603477,263447000927,08459,Beck Centennial Elementary School,"Beck Centennial Elementary School, a public school located in Macomb, MI, serves grades PK-6 in the Utica Community Schools.",public,"p,e","PK,KG,1,2,3,4,5,6",54600 Hayes Road,Macomb,MI,26099,48042,(586) 797-3900,(586) 797-3901,Macomb County,42.698109,-82.974197,Utica Community Schools,696,http://beck.uticak12.org/,https://www.greatschools.org/michigan/macomb/3477-Beck-Centennial-Elementary-School/
2604280,00642059,06425,Lutheran High School-North,"Lutheran High School-North, a private school located in Macomb, MI, serves grades 9-12 in the .",private,h,"9,10,11,12",16825 24 Mile Road,Macomb,MI,26099,48042,(586) 781-9151,(586) 781-9151,Macomb County,42.687744,-82.956375,,0,https://www.lutherannorth.com/,https://www.greatschools.org/michigan/macomb/4280-Lutheran-High-School-North/
2604306,00642456,03972,St. Peter Lutheran School,"St. Peter Lutheran School, a private school located in Macomb, MI, serves grades PK-8 in the .",private,"p,e,m","PK,TK,KG,1,2,3,4,5,6,7,8",17051 24 Mile Road,Macomb,MI,26099,48042,(586) 781-9692,(586) 781-9296,Macomb County,42.68782,-82.952675,,0,www.stpetermacomb.com,https://www.greatschools.org/michigan/macomb/4306-St.-Peter-Lutheran-School/
2606183,260957007482,09670,Sequoyah Elementary School,"Sequoyah Elementary School, a public school located in Macomb, MI, serves grades PK-5 in the Chippewa Valley Schools.",public,"p,e","PK,KG,1,2,3,4,5",18500 24 Mile Road,Macomb,MI,26099,48042,(586) 723-7000,(586) 723-7001,Macomb County,42.680786,-82.940536,Chippewa Valley Schools,309,http://www.chippewavalleyschools.org/schools/elementary-schools/sequoyah/,https://www.greatschools.org/michigan/macomb/6183-Sequoyah-Elementary-School/
2613493,262469008710,02760,M.L. King Academy,"M.L. King Academy, a public school located in Mount Clemens, MI, serves grades PK-12 & Ungraded in the Mount Clemens Community School District.",public,"p,e,m,h","PK,KG,1,2,3,4,5,6,7,8,9,10,11,12,UG",400 Clinton River Drive,Mount Clemens,MI,26099,48043,(586) 461-3100,,Macomb County,42.587433,-82.876427,Mount Clemens Community School District,552,http://www.mtcps.org,https://www.greatschools.org/michigan/mount-clemens/13493-M.L.-King-Academy/
2602590,262469006118,02624,Mount Clemens High School,"Mount Clemens High School, a public school located in Mount Clemens, MI, serves grades 9-12 in the Mount Clemens Community School District.",public,h,"9,10,11,12",155 Cass Avenue,Mount Clemens,MI,26099,48043,(586) 461-3400,(586) 469-7058,Macomb County,42.596767,-82.884018,Mount Clemens Community School District,552,http://www.mtcps.org,https://www.greatschools.org/michigan/mount-clemens/2590-Mount-Clemens-High-School/
2602592,262469007557,07252,Mount Clemens Junior High  School,"Mount Clemens Junior High  School, a public school located in Mount Clemens, MI, serves grades 6-8 in the Mount Clemens Community School District.",public,m,"6,7,8",161 Cass Avenue,Mount Clemens,MI,26099,48043,(586) 461-3400,(586) 469-7066,Macomb County,42.596909,-82.883278,Mount Clemens Community School District,552,http://www.mtcps.org,https://www.greatschools.org/michigan/mount-clemens/2592-Mount-Clemens-Junior-High--School/
2603934,00636497,03866,St. Mary School,"St. Mary School, a private school located in Mount Clemens, MI, serves grades PK-8 in the .",private,"p,e,m","PK,KG,1,2,3,4,5,6,7,8",2 Union Street,Mount Clemens,MI,26099,48043,(586) 468-4570,(586) 468-6454,Macomb,42.599487,-82.881645,,0,,https://www.greatschools.org/michigan/mount-clemens/3934-St.-Mary-School/
2604664,A9103527,07196,Montessori Stepping Stones,"Montessori Stepping Stones, a private school located in Mount Clemens, MI, serves grades PK-8 in the .",private,"p,e,m","PK,TK,KG,1,2,3,4,5,6,7,8",174 Cass Avenue,Mount Clemens,MI,26099,48043,(586) 465-4260,(586) 783-9412,Macomb County,42.597904,-82.884964,,0,http://www.montessoristeppingstones.com,https://www.greatschools.org/michigan/mount-clemens/4664-Montessori-Stepping-Stones/
2605570,260028301646,09294,Mt. Clemens Montessori Academy,"Mt. Clemens Montessori Academy, a charter school located in Mount Clemens, MI, serves grades PK-5 in the Mt. Clemens Montessori Academy.",charter,"p,e","PK,KG,1,2,3,4,5",1070 Hampton Road,Mount Clemens,MI,26099,48043,(586) 465-5545,(586) 465-2283,Macomb County,42.586262,-82.89167,Mt. Clemens Montessori Academy,839,http://www.mtclemensmontessori.com,https://www.greatschools.org/michigan/mount-clemens/5570-Mt.-Clemens-Montessori-Academy/
2605749,262469001673,09338,Seminole Academy,"Seminole Academy, a public school located in Mount Clemens, MI, serves grades PK-5 in the Mount Clemens Community School District.",public,"p,e","PK,KG,1,2,3,4,5",1500 MULBERRY ST,Mount Clemens,MI,26099,48043,(586) 461-3900,(586) 469-7027,Macomb County,42.580585,-82.90049,Mount Clemens Community School District,552,http://www.MTCPS.org,https://www.greatschools.org/michigan/clinton-township/5749-Seminole-Academy/
2606118,260031001754,09451,Prevail Academy,"Prevail Academy, a charter school located in Mount Clemens, MI, serves grades K-8 in the Prevail Academy.",charter,"e,m","KG,1,2,3,4,5,6,7,8",353 Cass Avenue,Mount Clemens,MI,26099,48043,(586) 783-0173,(586) 408-6018,Macomb County,42.59816,-82.894035,Prevail Academy,915,http://prevail.heritageacademies.com/,https://www.greatschools.org/michigan/mount-clemens/6118-Prevail-Academy/
2606268,A0507791,,St Mary Catholic School,"St Mary Catholic School, a private school located in Mount Clemens, MI, serves grades PK-8 in the .",private,"p,e,m","PK,TK,KG,1,2,3,4,5,6,7,8",2 Union Street,Mount Clemens,MI,26099,48043,(586) 468-4570,,Macomb County,42.599487,-82.881645,,0,,https://www.greatschools.org/michigan/mount-clemens/6268-St-Mary-Catholic-School/
2600818,260957004455,00728,Clinton Valley Elementary School,"Clinton Valley Elementary School, a public school located in Mount Clemens, MI, serves grades PK-5 in the Chippewa Valley Schools.",public,"p,e","PK,KG,1,2,3,4,5",1260 Mulberry Street,Mount Clemens,MI,26099,48043,(586) 723-5200,(586) 723-5201,Macomb County,42.582737,-82.898819,Chippewa Valley Schools,309,http://www.chippewavalleyschools.org/,https://www.greatschools.org/michigan/mount-clemens/818-Clinton-Valley-Elementary-School/
2609473,A0701348,,St. Mary School - Main Campus,"St. Mary School - Main Campus, a private school located in Mount Clemens, MI, serves grades 2-8 in the .",private,"e,m","2,3,4,5,6,7,8",96 New St,Mount Clemens,MI,26099,48043,,,Macomb,42.60083,-82.87886,,0,,https://www.greatschools.org/michigan/mount-clemens/9473-St.-Mary-School---Main-Campus/
2603512,263447007028,06933,Floyd Ebeling Elementary School,"Floyd Ebeling Elementary School, a public school located in Macomb, MI, serves grades PK-6 in the Utica Community Schools.",public,"p,e","PK,KG,1,2,3,4,5,6",15970 Haverhill Drive,Macomb,MI,26099,48044,(586) 797-4700,(586) 797-4701,Macomb County,42.647785,-82.964684,Utica Community Schools,696,http://ebeling.uticak12.org/,https://www.greatschools.org/michigan/macomb/3512-Floyd-Ebeling-Elementary-School/
2604305,00642445,01827,Immanuel Lutheran School,"Immanuel Lutheran School, a private school located in Macomb, MI, serves grades PK-8 in the .",private,"p,e,m","PK,TK,KG,1,2,3,4,5,6,7,8",47120 Romeo Plank Road,Macomb,MI,26099,48044,(586) 286-7076,(586) 286-4243,Macomb County,42.644096,-82.935616,,0,http://www.immlutheran.org/,https://www.greatschools.org/michigan/macomb/4305-Immanuel-Lutheran-School/
2605134,260957001309,09035,Shawnee Elementary School,"Shawnee Elementary School, a public school located in Macomb, MI, serves grades PK-5 in the Chippewa Valley Schools.",public,"p,e","PK,KG,1,2,3,4,5",21555 Vesper Drive,Macomb,MI,26099,48044,(586) 723-6800,(586) 723-6801,Macomb County,42.667542,-82.90136,Chippewa Valley Schools,309,http://www.chippewavalleyschools.org/schools/elementary-schools/shawnee/,https://www.greatschools.org/michigan/macomb/5134-Shawnee-Elementary-School/
2605881,268072000617,01346,Glen H. Peters School,"Glen H. Peters School, a public school located in Macomb, MI, serves grades PK-12 & Ungraded in the Macomb Independent School District.",public,"p,e,m,h","PK,KG,1,2,3,4,5,6,7,8,9,10,11,12,UG",46650 Heydenreich Road,Macomb,MI,26099,48044,(586) 465-6251,(586) 465-2973,Macomb County,42.641003,-82.914665,Macomb Independent School District,773,http://www.misd.net,https://www.greatschools.org/michigan/macomb/5881-Glen-H.-Peters-School/
2607637,A1101296,,Oxford Academy,"Oxford Academy, a private school located in Macomb, MI, serves grades PK-5 in the .",private,"p,e","PK,TK,KG,1,2,3,4,5",18600 23 Mile Road,Macomb,MI,26099,48044,(586) 649-7893,,Macomb County,42.671497,-82.938309,,0,http://www.oxfordacademymi.com/,https://www.greatschools.org/michigan/macomb/7637-Oxford-Academy/
2600812,260957000199,07985,Seneca Middle School,"Seneca Middle School, a public school located in Macomb, MI, serves grades 6-8 in the Chippewa Valley Schools.",public,m,"6,7,8",47200 Heydenreich Road,Macomb,MI,26099,48044,(586) 723-3900,(586) 723-3901,Macomb County,42.644844,-82.914818,Chippewa Valley Schools,309,http://www.chippewavalleyschools.org/schools/middle-schools/seneca/,https://www.greatschools.org/michigan/macomb/812-Seneca-Middle-School/
2600814,260957000623,08000,Dakota High School,"Dakota High School, a public school located in Macomb, MI, serves grades 9-12 in the Chippewa Valley Schools.",public,h,"9,10,11,12",21051 21 Mile Road,Macomb,MI,26099,48044,(586) 723-2700,(586) 723-2701,Macomb County,42.64537,-82.909683,Chippewa Valley Schools,309,http://www.chippewavalleyschools.org/schools/high-schools/dhs/,https://www.greatschools.org/michigan/macomb/814-Dakota-High-School/
2600815,260957001070,08627,Cheyenne Elementary School,"Cheyenne Elementary School, a public school located in Macomb, MI, serves grades PK-5 in the Chippewa Valley Schools.",public,"p,e","PK,KG,1,2,3,4,5",47600 Heydenreich Road,Macomb,MI,26099,48044,(586) 723-5000,(586) 723-5001,Macomb County,42.647671,-82.915276,Chippewa Valley Schools,309,http://www.chippewavalleyschools.org/schools/elementary-schools/cheyenne/,https://www.greatschools.org/michigan/macomb/815-Cheyenne-Elementary-School/
2600816,260957004453,00557,Fox Elementary School,"Fox Elementary School, a public school located in Macomb, MI, serves grades PK-5 in the Chippewa Valley Schools.",public,"p,e","PK,KG,1,2,3,4,5",17500 Millstone Drive,Macomb,MI,26099,48044,(586) 723-5600,(586) 723-5601,Macomb County,42.634155,-82.947212,Chippewa Valley Schools,309,http://www.chippewavalleyschools.org/schools/elementary-schools/fox/,https://www.greatschools.org/michigan/macomb/816-Fox-Elementary-School/
2600820,260957004457,02655,Iroquois Middle School,"Iroquois Middle School, a public school located in Macomb, MI, serves grades 6-8 in the Chippewa Valley Schools.",public,m,"6,7,8",48301 Romeo Plank Road,Macomb,MI,26099,48044,(586) 723-3700,(586) 723-3701,Macomb County,42.652878,-82.939102,Chippewa Valley Schools,309,http://www.chippewavalleyschools.org/schools/middle-schools/iroquois/,https://www.greatschools.org/michigan/macomb/820-Iroquois-Middle-School/
2600821,260957004458,02821,Ojibwa Elementary School,"Ojibwa Elementary School, a public school located in Macomb, MI, serves grades PK-5 in the Chippewa Valley Schools.",public,"p,e","PK,KG,1,2,3,4,5",46950 Heydenreich Road,Macomb,MI,26099,48044,(586) 723-6400,(586) 723-6401,Macomb County,42.642147,-82.913757,Chippewa Valley Schools,309,http://www.chippewavalleyschools.org/schools/elementary-schools/ojibwa/,https://www.greatschools.org/michigan/macomb/821-Ojibwa-Elementary-School/
2600826,260957007450,07214,Mohawk Elementary School,"Mohawk Elementary School, a public school located in Macomb, MI, serves grades PK-5 in the Chippewa Valley Schools.",public,"p,e","PK,KG,1,2,3,4,5",48101 Romeo Plank Road,Macomb,MI,26099,48044,(586) 723-6200,(586) 723-6201,Macomb County,42.65107,-82.938606,Chippewa Valley Schools,309,http://www.chippewavalleyschools.org/schools/elementary-schools/mohawk/,https://www.greatschools.org/michigan/macomb/826-Mohawk-Elementary-School/
2609547,,00624,Oxford Academy Montessori,"Oxford Academy Montessori, a private school located in Macomb, MI, serves grades 1-3, 5 in the .",private,e,"1,2,3,5",18600 23 Mile Road,Macomb,MI,26099,48044,(586) 649-7893,(586) 421-5842,Macomb,42.671074,-82.938316,,0,,https://www.greatschools.org/michigan/macomb/9547-Oxford-Academy-Montessori/
2602366,262187000627,03530,South River Elementary School,"South River Elementary School, a public school located in Harrison Township, MI, serves grades K-5 in the L'anse Creuse Public Schools.",public,e,"KG,1,2,3,4,5",27733 South River Road,Harrison Township,MI,26099,48045,(586) 783-6480,(586) 783-6486,Macomb County,42.591297,-82.831924,L'anse Creuse Public Schools,503,http://www.lc-ps.org,https://www.greatschools.org/michigan/harrison-township/2366-South-River-Elementary-School/
2602372,262187005911,02119,L'anse Creuse Middle School - South,"L'anse Creuse Middle School - South, a public school located in Harrison Township, MI, serves grades 6-8 in the L'anse Creuse Public Schools.",public,m,"6,7,8",34641 Jefferson Avenue,Harrison Township,MI,26099,48045,(586) 493-5620,(586) 493-5625,Macomb County,42.549564,-82.861519,L'anse Creuse Public Schools,503,http://www.lc-ps.org,https://www.greatschools.org/michigan/harrison-township/2372-Lanse-Creuse-Middle-School---South/
2602373,262187005912,02124,L'Anse Creuse High School,"L'Anse Creuse High School, a public school located in Harrison Township, MI, serves grades 9-12 in the L'anse Creuse Public Schools.",public,h,"9,10,11,12",38495 Lanse Creuse Street,Harrison Township,MI,26099,48045,(586) 783-6400,(586) 783-6408,Macomb County,42.581367,-82.853638,L'anse Creuse Public Schools,503,http://www.lc-ps.org,https://www.greatschools.org/michigan/harrison-township/2373-Lanse-Creuse-High-School/
2602374,262187005913,02374,Marie C. Graham Elementary School,"Marie C. Graham Elementary School, a public school located in Harrison Township, MI, serves grades PK-5 in the L'anse Creuse Public Schools.",public,"p,e","PK,KG,1,2,3,4,5",25555 Crocker Boulevard,Harrison Township,MI,26099,48045,(586) 783-6460,(586) 783-6466,Macomb County,42.575508,-82.853821,L'anse Creuse Public Schools,503,http://www.lc-ps.org,https://www.greatschools.org/michigan/harrison-township/2374-Marie-C.-Graham-Elementary-School/
2602376,262187005917,06360,Emma V. Lobbestael Elementary School,"Emma V. Lobbestael Elementary School, a public school located in Harrison Township, MI, serves grades PK-5 in the L'anse Creuse Public Schools.",public,"p,e","PK,KG,1,2,3,4,5",38495 Prentiss Street,Harrison Township,MI,26099,48045,(586) 783-6450,(586) 783-6456,Macomb County,42.577858,-82.816536,L'anse Creuse Public Schools,503,http://www.lc-ps.org,https://www.greatschools.org/michigan/harrison-township/2376-Emma-V.-Lobbestael-Elementary-School/
2602379,262187005921,06768,Donald J. Yacks Elementary School,"Donald J. Yacks Elementary School, a public school located in Harrison Township, MI, serves grades PK-5 in the L'anse Creuse Public Schools.",public,"p,e","PK,KG,1,2,3,4,5",34700 Union Lake Road,Harrison Township,MI,26099,48045,(586) 493-5630,(586) 493-5635,Macomb County,42.550865,-82.863785,L'anse Creuse Public Schools,503,http://www.lc-ps.org,https://www.greatschools.org/michigan/harrison-township/2379-Donald-J.-Yacks-Elementary-School/
2602380,262187007736,02125,L'anse Creuse Middle School - Central,"L'anse Creuse Middle School - Central, a public school located in Harrison Township, MI, serves grades 6-8 in the L'anse Creuse Public Schools.",public,m,"6,7,8",38000 Reimold Street,Harrison Township,MI,26099,48045,(586) 783-6430,(586) 783-6437,Macomb County,42.57729,-82.854187,L'anse Creuse Public Schools,503,http://www.lc-ps.org,https://www.greatschools.org/michigan/harrison-township/2380-Lanse-Creuse-Middle-School---Central/
2602375,262187005915,05223,Green Elementary School,"Green Elementary School, a public school located in CHESTERFIELD, MI, serves grades PK-5 in the L'anse Creuse Public Schools.",public,"p,e","PK,KG,1,2,3,4,5",47260 SUGARBUSH RD,CHESTERFIELD,MI,26099,48047,(586) 493-5280,(586) 493-5285,Macomb County,42.646259,-82.820061,L'anse Creuse Public Schools,503,http://www.lc-ps.org,https://www.greatschools.org/michigan/new-baltimore/2375-Green-Elementary-School/
2600349,260279000196,00088,Anchor Bay Middle School North,"Anchor Bay Middle School North, a public school located in New Baltimore, MI, serves grades 6-8 in the Anchor Bay School District.",public,m,"6,7,8",52805 Ashley Drive,New Baltimore,MI,26099,48047,(586) 725-7373,(586) 725-6760,Macomb County,42.687988,-82.739876,Anchor Bay School District,216,http://www.anchorbay.misd.net/schools/ms-north/,https://www.greatschools.org/michigan/new-baltimore/349-Anchor-Bay-Middle-School-North/
2600350,260279000197,06600,Sugarbush Elementary School,"Sugarbush Elementary School, a public school located in CHESTERFIELD, MI, serves grades PK-5 in the Anchor Bay School District.",public,"p,e","PK,KG,1,2,3,4,5",48400 SUGARBUSH RD,CHESTERFIELD,MI,26099,48047,(586) 598-7660,(586) 598-7671,Macomb County,42.664101,-82.795937,Anchor Bay School District,216,http://anchorbay.misd.net/schools/sugarbush/,https://www.greatschools.org/michigan/new-baltimore/350-Sugarbush-Elementary-School/
2600351,260279000198,06766,Great Oaks Elementary School,"Great Oaks Elementary School, a public school located in CHESTERFIELD, MI, serves grades K-5 in the Anchor Bay School District.",public,e,"KG,1,2,3,4,5",32900 24 MILE RD,CHESTERFIELD,MI,26099,48047,(586) 725-2038,(586) 725-4014,Macomb County,42.689377,-82.77861,Anchor Bay School District,216,http://www.anchorbay.misd.net/schools/great-oaks/,https://www.greatschools.org/michigan/new-baltimore/351-Great-Oaks-Elementary-School/
2600352,260279000922,08474,Compass Pointe,"Compass Pointe, a public school located in New Baltimore, MI, serves grades 9-12 in the Anchor Bay School District.",public,h,"9,10,11,12",51518 INDUSTRIAL DR STE H,New Baltimore,MI,26099,48047,(586) 725-2205,(586) 725-2257,Macomb County,42.682201,-82.751801,Anchor Bay School District,216,http://www.anchorbay.misd.net/schools/compass-pointe/,https://www.greatschools.org/michigan/new-baltimore/352-Compass-Pointe/
2600354,260279001142,08710,Anchor Bay Middle School South,"Anchor Bay Middle School South, a public school located in CHESTERFIELD, MI, serves grades 6-8 in the Anchor Bay School District.",public,m,"6,7,8",48650 SUGARBUSH RD,CHESTERFIELD,MI,26099,48047,(586) 949-4510,(586) 949-4739,Macomb County,42.66275,-82.789825,Anchor Bay School District,216,http://www.anchorbay.misd.net/schools/ms-south/,https://www.greatschools.org/michigan/new-baltimore/354-Anchor-Bay-Middle-School-South/
2600356,260279003998,00091,Ashley Elementary School,"Ashley Elementary School, a public school located in New Baltimore, MI, serves grades K-5 in the Anchor Bay School District.",public,e,"KG,1,2,3,4,5",52347 Ashley Street,New Baltimore,MI,26099,48047,(586) 725-2801,(586) 725-4426,Macomb County,42.686401,-82.737167,Anchor Bay School District,216,http://anchorbay.misd.net/schools/ashley/,https://www.greatschools.org/michigan/new-baltimore/356-Ashley-Elementary-School/
2600357,260279003999,00884,Dean A. Naldrett School,"Dean A. Naldrett School, a public school located in CHESTERFIELD, MI, serves grades PK-5 in the Anchor Bay School District.",public,"p,e","PK,KG,1,2,3,4,5",47800 SUGARBUSH RD,CHESTERFIELD,MI,26099,48047,(586) 949-1212,(586) 598-7666,Macomb County,42.658108,-82.808716,Anchor Bay School District,216,http://anchorbay.misd.net/schools/naldrett/,https://www.greatschools.org/michigan/new-baltimore/357-Dean-A.-Naldrett-School/
2600358,260279004001,06262,Lottie M. Schmidt Elementary School,"Lottie M. Schmidt Elementary School, a public school located in CHESTERFIELD, MI, serves grades K-5 in the Anchor Bay School District.",public,e,"KG,1,2,3,4,5",33700 HOOKER RD,CHESTERFIELD,MI,26099,48047,(586) 725-7541,(586) 725-7590,Macomb County,42.662998,-82.771721,Anchor Bay School District,216,http://www.anchorbay.misd.net/schools/lottle/,https://www.greatschools.org/michigan/new-baltimore/358-Lottie-M.-Schmidt-Elementary-School/
2605585,260279001490,09208,Lighthouse Elementary School,"Lighthouse Elementary School, a public school located in New Baltimore, MI, serves grades K-5 in the Anchor Bay School District.",public,e,"KG,1,2,3,4,5",51880 Washington Street,New Baltimore,MI,26099,48047,(586) 725-6404,(586) 725-4016,Macomb County,42.686268,-82.741707,Anchor Bay School District,216,http://anchorbay.misd.net/schools/lighthouse/,https://www.greatschools.org/michigan/new-baltimore/5585-Lighthouse-Elementary-School/
2602655,262523006184,02683,New Haven High School,"New Haven High School, a public school located in New Haven, MI, serves grades 9-12 in the New Haven Community Schools.",public,h,"9,10,11,12",57700 Gratiot Avenue,New Haven,MI,26099,48048,(586) 749-5104,(586) 749-8460,Macomb County,42.724995,-82.791046,New Haven Community Schools,561,http://www.newhaven.misd.net,https://www.greatschools.org/michigan/new-haven/2655-New-Haven-High-School/
2605210,260028101598,09077,Merritt Academy,"Merritt Academy, a charter school located in New Haven, MI, serves grades PK-12 in the Merritt Academy.",charter,"p,e,m,h","PK,KG,1,2,3,4,5,6,7,8,9,10,11,12",59900 Haven Ridge Road,New Haven,MI,26099,48048,(586) 749-6000,(586) 749-8582,Macomb County,42.740948,-82.800896,Merritt Academy,830,http://www.merritt-academy.org,https://www.greatschools.org/michigan/new-haven/5210-Merritt-Academy/
2606110,262523001751,09437,New Haven Elementary School,"New Haven Elementary School, a public school located in New Haven, MI, serves grades K-5 in the New Haven Community Schools.",public,e,"KG,1,2,3,4,5",57701 River Oaks Drive,New Haven,MI,26099,48048,(586) 749-8360,(586) 749-8365,Macomb County,42.724728,-82.784798,New Haven Community Schools,561,http://www.newhaven.misd.net,https://www.greatschools.org/michigan/new-haven/6110-New-Haven-Elementary-School/
2609645,262523008215,00825,Lake Huron Virtual & Hybrid High School,"Lake Huron Virtual & Hybrid High School, a public school located in New Haven, MI, serves grades 6-12 in the New Haven Community Schools.",public,"m,h","6,7,8,9,10,11,12",57700 Gratiot Avenue,New Haven,MI,26099,48048,(586) 749-5123,(586) 749-8460,Macomb County,42.724995,-82.791046,New Haven Community Schools,561,,https://www.greatschools.org/michigan/new-haven/9645-Lake-Huron-Virtual--Hybrid-High-School/
2613486,,,Precious Angels Christian Academy,"Precious Angels Christian Academy, a private school located in Chesterfield, MI, serves grades PK-K in the .",private,"p,e","PK,KG",46000 Gratiot Avenue,Chesterfield,MI,26099,48051,(586) 649-7286,,Macomb,42.637676,-82.855118,,0,www.preciousangelschristianacademy.com,https://www.greatschools.org/michigan/chesterfield/13486-Precious-Angels-Christian-Academy/
2602368,262187000630,08242,Francis A. Higgins Elementary School,"Francis A. Higgins Elementary School, a public school located in CHESTERFIELD, MI, serves grades PK-5 in the L'anse Creuse Public Schools.",public,"p,e","PK,KG,1,2,3,4,5",29901 24 MILE RD,CHESTERFIELD,MI,26099,48051,(586) 493-5210,(586) 493-5215,Macomb County,42.691597,-82.808884,L'anse Creuse Public Schools,503,http://www.lc-ps.org,https://www.greatschools.org/michigan/new-baltimore/2368-Francis-A.-Higgins-Elementary-School/
2604960,262187001236,08735,L'anse Creuse Middle School - East,"L'anse Creuse Middle School - East, a public school located in CHESTERFIELD, MI, serves grades 6-8 in the L'anse Creuse Public Schools.",public,m,"6,7,8",30300 HICKEY RD,CHESTERFIELD,MI,26099,48051,(586) 493-5200,(586) 493-5205,Macomb County,42.694492,-82.806763,L'anse Creuse Public Schools,503,http://www.lc-ps.org,https://www.greatschools.org/michigan/new-baltimore/4960-Lanse-Creuse-Middle-School---East/
2605066,262187001379,08879,Joseph M. Carkenord Elementary School,"Joseph M. Carkenord Elementary School, a public school located in CHESTERFIELD, MI, serves grades K-5 in the L'anse Creuse Public Schools.",public,e,"KG,1,2,3,4,5",27100 24 MILE RD,CHESTERFIELD,MI,26099,48051,(586) 493-5230,(586) 493-5235,Macomb County,42.688076,-82.837051,L'anse Creuse Public Schools,503,http://www.lc-ps.org,https://www.greatschools.org/michigan/new-baltimore/5066-Joseph-M.-Carkenord-Elementary-School/
2609533,A1301673,00887,Austin Catholic Academy,"Austin Catholic Academy, a private school located in New Baltimore, MI, serves grades 9-12 in the .",private,h,"9,10,11,12",25925 23 Mile Road,New Baltimore,MI,26099,48051,(586) 200-0143,(586) 749-5217,Macomb County,42.675407,-82.848679,,0,,https://www.greatschools.org/michigan/ray-township/9533-Austin-Catholic-Academy/
