universal-id,nces-id,state-id,name,school-summary,type,level-codes,level,street,city,state,fipscounty,zip,phone,fax,county,lat,lon,district-name,district-id,web-site,overview-url
1702032,171425001767,3404903302001,Emmons Grade School,"Emmons Grade School, a public school located in Antioch, IL, serves grades K-8 in the Emmons School District 33.",public,"e,m","KG,1,2,3,4,5,6,7,8",24226 West Beach Grove Road,Antioch,IL,17097.0,60002,(847) 395-1105,,Lake County,42.459717,-88.106033,Emmons School District 33,443,http://www.emmons33.org,https://www.greatschools.org/illinois/antioch/2032-Emmons-Grade-School/
1702257,171749002053,3404903602001,Grass Lake Elementary School,"Grass Lake Elementary School, a public school located in Antioch, IL, serves grades PK-8 in the Grass Lake School District 36.",public,"p,e,m","PK,KG,1,2,3,4,5,6,7,8",26177 West Grass Lake Road,Antioch,IL,17097.0,60002,(847) 395-1550,,Lake County,42.439983,-88.138977,Grass Lake School District 36,508,http://www.gls36.org,https://www.greatschools.org/illinois/antioch/2257-Grass-Lake-Elementary-School/
1700431,170384000071,3404903402001,Antioch Elementary School,"Antioch Elementary School, a public school located in Antioch, IL, serves grades 2-5 in the Antioch Central Consolidated School District 34.",public,e,"2,3,4,5",817 Main Street,Antioch,IL,17097.0,60002,(847) 838-8901,,Lake County,42.480465,-88.095421,Antioch Central Consolidated School District 34,206,http://www.antioch34.com/AntiochElementary.cfm,https://www.greatschools.org/illinois/antioch/431-Antioch-Elementary-School/
1700432,170384000072,3404903401002,Antioch Upper Grade School,"Antioch Upper Grade School, a public school located in Antioch, IL, serves grades 6-8 in the Antioch Central Consolidated School District 34.",public,m,"6,7,8",800 Highview Drive,Antioch,IL,17097.0,60002,(847) 838-8310,,Lake County,42.480213,-88.112778,Antioch Central Consolidated School District 34,206,http://www.antioch34.com,https://www.greatschools.org/illinois/antioch/432-Antioch-Upper-Grade-School/
1700434,170384004366,3404903402005,W C Petty Elementary School,"W C Petty Elementary School, a public school located in Antioch, IL, serves grades K-5 in the Antioch Central Consolidated School District 34.",public,e,"KG,1,2,3,4,5",850 Highview Drive,Antioch,IL,17097.0,60002,(847) 838-8100,,Lake County,42.480663,-88.116631,Antioch Central Consolidated School District 34,206,http://www.antioch34.com,https://www.greatschools.org/illinois/antioch/434-W-C-Petty-Elementary-School/
1700435,170387000075,3404911700001,Antioch Community High School,"Antioch Community High School, a public school located in Antioch, IL, serves grades 9-12 in the Chsd 117 School District.",public,h,"9,10,11,12",1133 Main Street,Antioch,IL,17097.0,60002,(847) 838-7179,,Lake County,42.472752,-88.092674,Chsd 117 School District,207,http://www.chsd117.org,https://www.greatschools.org/illinois/antioch/435-Antioch-Community-High-School/
1704879,00349651,34049039X0000,Faith Evangelical Lutheran School,"Faith Evangelical Lutheran School, a private school located in Antioch, IL, serves grades PK-8 in the .",private,"p,e,m","PK,TK,KG,1,2,3,4,5,6,7,8",1275 Main Street,Antioch,IL,17097.0,60002,(847) 395-1660,(847) 589-0519,Lake County,42.467899,-88.091522,,0,faithantioch.org,https://www.greatschools.org/illinois/antioch/4879-Faith-Evangelical-Lutheran-School/
1705827,170384004417,3404903402006,Hillcrest Elementary School,"Hillcrest Elementary School, a public school located in Antioch, IL, serves grades K-5 in the Antioch Central Consolidated School District 34.",public,e,"KG,1,2,3,4,5",433 East Depot Street,Antioch,IL,17097.0,60002,(847) 838-8000,,Lake County,42.483101,-88.065315,Antioch Central Consolidated School District 34,206,http://www.antioch34.com,https://www.greatschools.org/illinois/antioch/5827-Hillcrest-Elementary-School/
1710113,BB060680,,St. James Junior High School,"St. James Junior High School, a private school located in Arlington Heights, IL, serves grades PK-8 in the .",private,"p,e,m","PK,KG,1,2,3,4,5,6,7,8",800 N Arlington Heights Rd,Arlington Heights,IL,17031.0,60004,(847) 255-6746,,Cook,42.09259,-87.980385,,0,,https://www.greatschools.org/illinois/arlington-heights/10113-St.-James-Junior-High-School/
1710423,,05016125X0000,A Mothers Touch Creative Learning Center,"A Mothers Touch Creative Learning Center, a private school located in Arlington Heights, IL, serves grades PK-K in the .",private,"p,e","PK,KG",125 North Dryden Place,Arlington Heights,IL,17031.0,60004,(847) 577-7600,,Cook,42.084148,-87.970749,,0,,https://www.greatschools.org/illinois/arlington-heights/10423-A-Mothers-Touch-Creative-Learning-Center/
1710712,BB100568,,Flower Garden Nursery School & Daycare Center,"Flower Garden Nursery School & Daycare Center, a private school located in Arlington Heights, IL, serves grades PK-K in the .",private,"p,e","PK,TK,KG",2420 East Rand Road,Arlington Heights,IL,17031.0,60004,(847) 392-8983,,Cook County,42.094406,-87.95282,,0,,https://www.greatschools.org/illinois/arlington-heights/10712-Flower-Garden-Nursery-School--Daycare-Center/
1700113,170003205095,0501680506004,Miner School,"Miner School, a public school located in Arlington Heights, IL, serves grades Ungraded in the NW Suburban Special Education Org.",public,"e,m,h",UG,1101 East Miner Street,Arlington Heights,IL,17031.0,60004,(847) 463-8400,,Cook County,42.084007,-87.969696,NW Suburban Special Education Org,26,http://www.nsseo.org/programs/miner-school/,https://www.greatschools.org/illinois/arlington-heights/113-Miner-School/
1712130,,0501602550050,Newhope Academy,"Newhope Academy, a private school located in Arlington Heights, IL, serves grades Ungraded in the .",private,"e,m,h",UG,3250 North Arlington Heights Road,Arlington Heights,IL,17031.0,60004,(847) 588-0463,,Cook,42.134724,-87.984764,,0,http://www.nhaweb.com/,https://www.greatschools.org/illinois/niles/12130-Newhope-Academy/
1713173,A1701461,,Chicago Futabakai Japanese School,"Chicago Futabakai Japanese School, a private school located in Arlington Heights, IL, serves grades PK-9 in the .",private,"p,e,m","PK,TK,KG,1,2,3,4,5,6,7,8,9",2550 North Arlington Heights Road,Arlington Heights,IL,17031.0,60004,(847) 590-5700,,Cook County,42.121536,-87.981323,,0,,https://www.greatschools.org/illinois/arlington-heights/13173-Chicago-Futabakai-Japanese-School/
1704192,174221004231,0501602102011,J W Riley Elementary School,"J W Riley Elementary School, a public school located in Arlington Heights, IL, serves grades K-5 in the Wheeling Central Consolidated School District 21.",public,e,"KG,1,2,3,4,5",1209 East Burr Oak Drive,Arlington Heights,IL,17031.0,60004,(847) 670-3400,,Cook County,42.128326,-87.966743,Wheeling Central Consolidated School District 21,1065,http://www.ccsd21.org,https://www.greatschools.org/illinois/arlington-heights/4192-J-W-Riley-Elementary-School/
1704194,174221004233,0501602102010,Edgar A Poe Elementary School,"Edgar A Poe Elementary School, a public school located in Arlington Heights, IL, serves grades K-5 in the Wheeling Central Consolidated School District 21.",public,e,"KG,1,2,3,4,5",2800 North Highland Avenue,Arlington Heights,IL,17031.0,60004,(847) 670-3200,,Cook County,42.126984,-87.985893,Wheeling Central Consolidated School District 21,1065,http://www.ccsd21.org,https://www.greatschools.org/illinois/arlington-heights/4194-Edgar-A-Poe-Elementary-School/
1700458,170414000096,0501602502004,Greenbrier Elementary School,"Greenbrier Elementary School, a public school located in Arlington Heights, IL, serves grades PK-5 in the Arlington Heights School District 25.",public,"p,e","PK,KG,1,2,3,4,5",2330 North Verde Drive,Arlington Heights,IL,17031.0,60004,(847) 398-4272,,Cook County,42.119423,-87.998177,Arlington Heights School District 25,214,http://www.sd25.org,https://www.greatschools.org/illinois/arlington-heights/458-Greenbrier-Elementary-School/
1700459,170414000097,0501602502005,Ivy Hill Elementary School,"Ivy Hill Elementary School, a public school located in Arlington Heights, IL, serves grades K-5 in the Arlington Heights School District 25.",public,e,"KG,1,2,3,4,5",2211 North Burke Drive,Arlington Heights,IL,17031.0,60004,(847) 398-4275,,Cook County,42.115631,-87.971764,Arlington Heights School District 25,214,http://www.sd25.org,https://www.greatschools.org/illinois/arlington-heights/459-Ivy-Hill-Elementary-School/
1704590,00344733,05016666X0000,St James School,"St James School, a private school located in Arlington Heights, IL, serves grades PK-8 in the .",private,"p,e,m","PK,TK,KG,1,2,3,4,5,6,7,8",820 North Arlington Heights Road,Arlington Heights,IL,17031.0,60004,(224) 345-7145,,Cook County,42.092758,-87.980682,,0,,https://www.greatschools.org/illinois/arlington-heights/4590-St-James-School/
1704594,00344799,05016113Y0000,St Viator High School,"St Viator High School, a private school located in Arlington Heights, IL, serves grades 9-12 in the .",private,h,"9,10,11,12",1213 East Oakton Street,Arlington Heights,IL,17031.0,60004,(847) 392-4050,,Cook County,42.094498,-87.969391,,0,http://www.saintviator.com/,https://www.greatschools.org/illinois/arlington-heights/4594-St-Viator-High-School/
1700460,170414000098,0501602502009,Olive-Mary Stitt School,"Olive-Mary Stitt School, a public school located in Arlington Heights, IL, serves grades K-5 in the Arlington Heights School District 25.",public,e,"KG,1,2,3,4,5",303 East Olive Street,Arlington Heights,IL,17031.0,60004,(847) 398-4282,,Cook County,42.098763,-87.978897,Arlington Heights School District 25,214,http://www.sd25.org,https://www.greatschools.org/illinois/arlington-heights/460-Olive-Mary-Stitt-School/
1700461,170414000099,0501602502011,Patton Elementary School,"Patton Elementary School, a public school located in Arlington Heights, IL, serves grades K-5 in the Arlington Heights School District 25.",public,e,"KG,1,2,3,4,5",1616 North Patton Avenue,Arlington Heights,IL,17031.0,60004,(847) 398-4288,,Cook County,42.107048,-87.996979,Arlington Heights School District 25,214,http://www.sd25.org,https://www.greatschools.org/illinois/arlington-heights/461-Patton-Elementary-School/
1700463,170414000101,0501602502018,Windsor Elementary School,"Windsor Elementary School, a public school located in Arlington Heights, IL, serves grades K-5 in the Arlington Heights School District 25.",public,e,"KG,1,2,3,4,5",1315 East Miner Street,Arlington Heights,IL,17031.0,60004,(847) 398-4297,,Cook County,42.083393,-87.967201,Arlington Heights School District 25,214,http://www.sd25.org,https://www.greatschools.org/illinois/arlington-heights/463-Windsor-Elementary-School/
1700465,170414000106,0501602501015,Thomas Middle School,"Thomas Middle School, a public school located in Arlington Heights, IL, serves grades 6-8 in the Arlington Heights School District 25.",public,m,"6,7,8",1430 North Belmont Avenue,Arlington Heights,IL,17031.0,60004,(847) 398-4260,,Cook County,42.102409,-87.978897,Arlington Heights School District 25,214,http://www.sd25.org,https://www.greatschools.org/illinois/arlington-heights/465-Thomas-Middle-School/
1700470,170417000113,0501621400004,John Hersey High School,"John Hersey High School, a public school located in Arlington Heights, IL, serves grades 9-12 in the Township Hsd 214 School District.",public,h,"9,10,11,12",1900 East Thomas Street,Arlington Heights,IL,17031.0,60004,(847) 718-4800,,Cook County,42.103943,-87.959206,Township Hsd 214 School District,215,http://www.d214.org,https://www.greatschools.org/illinois/arlington-heights/470-John-Hersey-High-School/
1704890,00349866,05016102X0000,St Peter Lutheran School,"St Peter Lutheran School, a private school located in Arlington Heights, IL, serves grades PK-8 in the .",private,"p,e,m","PK,TK,KG,1,2,3,4,5,6,7,8",111 West Olive Street,Arlington Heights,IL,17031.0,60004,(224) 387-3825,(847) 259-4185,Cook County,42.0975,-87.983582,,0,http://www.stpeter-ah.org,https://www.greatschools.org/illinois/arlington-heights/4890-St-Peter-Lutheran-School/
1705234,A9102357,05016987Z0000,Chicago Futabakai Japanese School,"Chicago Futabakai Japanese School, a private school located in Arlington Heights, IL, serves grades 1-9 in the .",private,"e,m","1,2,3,4,5,6,7,8,9",2550 North Arlington Heights Road,Arlington Heights,IL,17031.0,60004,(847) 590-5700,,Cook,42.121098,-87.98101,,0,,https://www.greatschools.org/illinois/arlington-heights/5234-Chicago-Futabakai-Japanese-School/
1705460,AA000296,05016171Z0000,Christian Liberty Academy,"Christian Liberty Academy, a private school located in Arlington Heights, IL, serves grades PK-12 in the .",private,"p,e,m,h","PK,TK,KG,1,2,3,4,5,6,7,8,9,10,11,12",502 West Euclid Avenue,Arlington Heights,IL,17031.0,60004,(847) 259-4444,,Cook County,42.089191,-87.989288,,0,http://christianlibertyacademy.com/,https://www.greatschools.org/illinois/arlington-heights/5460-Christian-Liberty-Academy/
1705755,170003203950,0501680506012,Timber Ridge School,"Timber Ridge School, a public school located in Arlington Heights, IL, serves grades Ungraded in the NW Suburban Special Education Org.",public,"e,m,h",UG,201 South Evanston Avenue,Arlington Heights,IL,17031.0,60004,(847) 463-8300,,Cook County,42.079525,-87.95224,NW Suburban Special Education Org,26,,https://www.greatschools.org/illinois/arlington-heights/5755-Timber-Ridge-School/
1706187,K9302092,05016255X0000,Montessori School,"Montessori School, a private school located in Arlington Heights, IL, serves grades PK-K in the .",private,"p,e","PK,KG",1819 North Yale Avenue,Arlington Heights,IL,17031.0,60004,(847) 394-1315,,Cook,42.108574,-87.999199,,0,,https://www.greatschools.org/illinois/arlington-heights/6187-Montessori-School/
1706754,BB940921,,Bright Horizons,"Bright Horizons, a private school located in Arlington Heights, IL, serves grades PK-K in the .",private,"p,e","PK,TK,KG",3523 North Kennicott Avenue,Arlington Heights,IL,17031.0,60004,(847) 398-7004,,Cook County,42.140011,-87.995216,,0,,https://www.greatschools.org/illinois/arlington-heights/6754-Bright-Horizons/
1707097,A0507495,05016569X0000,Bright Horizons At Motorola-Arlington Hts,"Bright Horizons At Motorola-Arlington Hts, a private school located in Arlington Heights, IL, serves grades K in the .",private,e,KG,1441 West Shure Drive,Arlington Heights,IL,17031.0,60004,(847) 435-9900,,Cook,42.135616,-87.998611,,0,,https://www.greatschools.org/illinois/arlington-heights/7097-Bright-Horizons-At-Motorola-Arlington-Hts/
1707110,BB021026,05016611S0000,NewHope Academy,"NewHope Academy, a private school located in Arlington Heights, IL, serves grades 6-12 in the .",private,"m,h","6,7,8,9,10,11,12",3250 North Arlington Heights Road,Arlington Heights,IL,17031.0,60004,(847) 588-0463,(847) 588-0464,Cook County,42.1343,-87.984238,,0,http://www.nhaweb.com/,https://www.greatschools.org/illinois/niles/7110-NewHope-Academy/
1707632,,,Kinder Care #070457,"Kinder Care #070457, a private school located in Arlington Heights, IL, serves grades PK-K in the .",private,"p,e","PK,KG",1320 North Arlington Heights Road,Arlington Heights,IL,17031.0,60004,(847) 255-7335,,Cook,42.100925,-87.981918,,0,,https://www.greatschools.org/illinois/arlington-heights/7632-Kinder-Care-070457/
1707638,,,Flower Garden Nursery School & Dcc,"Flower Garden Nursery School & Dcc, a private school located in Arlington Heights, IL, serves grades PK-K in the .",private,"p,e","PK,KG",2420 East Rand Road,Arlington Heights,IL,17031.0,60004,(847) 392-8983,,Cook,42.092419,-87.950401,,0,,https://www.greatschools.org/illinois/arlington-heights/7638-Flower-Garden-Nursery-School--Dcc/
1710047,BB060682,0501601530141,Laureate Day School,"Laureate Day School, a private school located in Arlington Heights, IL, serves grades 2-8 in the .",private,"e,m","2,3,4,5,6,7,8",2525 East Oakton Street,Arlington Heights,IL,17031.0,60005,(847) 956-7912,,Cook County,42.02198,-87.944008,,0,http://www.metroprep.org/laureate-day-school,https://www.greatschools.org/illinois/arlington-heights/10047-Laureate-Day-School/
1710594,A0501506,,Arlington Montessori School,"Arlington Montessori School, a private school located in Arlington Heights, IL, serves grades PK-K in the .",private,"p,e","PK,TK,KG",2025 South Goebbert Road,Arlington Heights,IL,17031.0,60005,(847) 222-4267,,Cook County,42.048187,-87.974174,,0,http://www.arlingtonmontessorischool.com/,https://www.greatschools.org/illinois/arlington-heights/10594-Arlington-Montessori-School/
1712124,,0501601530090,Metropolitan Prep High School,"Metropolitan Prep High School, a private school located in Arlington Heights, IL, serves grades Ungraded in the .",private,"e,m,h",UG,2525 East Oakton Street,Arlington Heights,IL,17031.0,60005,(847) 956-7912,,Cook,42.022305,-87.944,,0,,https://www.greatschools.org/illinois/arlington-heights/12124-Metropolitan-Prep-High-School/
1712125,,0501601530091,Metropolitan Prep Grade School,"Metropolitan Prep Grade School, a private school located in Arlington Heights, IL, serves grades Ungraded in the .",private,"e,m,h",UG,2525 East Oakton Street,Arlington Heights,IL,17031.0,60005,(847) 956-7912,,Cook,42.022305,-87.944,,0,,https://www.greatschools.org/illinois/arlington-heights/12125-Metropolitan-Prep-Grade-School/
1701995,171377001722,0501605902016,Juliette Low Elementary School,"Juliette Low Elementary School, a public school located in Arlington Heights, IL, serves grades K-5 in the Comm Cons School District 59.",public,e,"KG,1,2,3,4,5",1530 South Highland Avenue,Arlington Heights,IL,17031.0,60005,(847) 593-4383,,Cook County,42.056114,-87.987526,Comm Cons School District 59,434,http://www.ccsd59.org,https://www.greatschools.org/illinois/arlington-heights/1995-Juliette-Low-Elementary-School/
1704537,00343762,05016667X0000,Our Lady Of The Wayside School,"Our Lady Of The Wayside School, a private school located in Arlington Heights, IL, serves grades PK-8 in the .",private,"p,e,m","PK,TK,KG,1,2,3,4,5,6,7,8",432 South Mitchell Avenue,Arlington Heights,IL,17031.0,60005,(224) 255-0050,(847) 253-0543,Cook County,42.07645,-87.988213,,0,http://www.olwschool.org,https://www.greatschools.org/illinois/arlington-heights/4537-Our-Lady-Of-The-Wayside-School/
1700457,170414000095,0501602502002,Dryden Elementary School,"Dryden Elementary School, a public school located in Arlington Heights, IL, serves grades K-5 in the Arlington Heights School District 25.",public,e,"KG,1,2,3,4,5",722 South Dryden Place,Arlington Heights,IL,17031.0,60005,(847) 398-4280,,Cook County,42.070583,-87.971489,Arlington Heights School District 25,214,http://www.sd25.org,https://www.greatschools.org/illinois/arlington-heights/457-Dryden-Elementary-School/
1700462,170414000100,0501602502016,Westgate Elementary School,"Westgate Elementary School, a public school located in Arlington Heights, IL, serves grades K-5 in the Arlington Heights School District 25.",public,e,"KG,1,2,3,4,5",500 South Dwyer Avenue,Arlington Heights,IL,17031.0,60005,(847) 398-4292,,Cook County,42.076366,-87.998276,Arlington Heights School District 25,214,http://www.sd25.org,https://www.greatschools.org/illinois/arlington-heights/462-Westgate-Elementary-School/
1700464,170414000105,0501602501014,South Middle School,"South Middle School, a public school located in Arlington Heights, IL, serves grades 6-8 in the Arlington Heights School District 25.",public,m,"6,7,8",400 South Highland Avenue,Arlington Heights,IL,17031.0,60005,(847) 398-4250,,Cook County,42.077126,-87.986305,Arlington Heights School District 25,214,http://www.sd25.org,https://www.greatschools.org/illinois/arlington-heights/464-South-Middle-School/
1700467,170417000036,0501621403004,Young Adult Program,"Young Adult Program, a public school located in Arlington Heights, IL, serves grades 9-12 in the Township Hsd 214 School District.",public,h,"9,10,11,12",2121 South Goebbert Road,Arlington Heights,IL,17031.0,60005,(847) 718-7909,,Cook County,42.046337,-87.973595,Township Hsd 214 School District,215,http://www.d214.org,https://www.greatschools.org/illinois/rolling-meadows/467-Young-Adult-Program/
1700473,170417000116,0501621403001,The Academy at Forest View,"The Academy at Forest View, a public school located in Arlington Heights, IL, serves grades 9-12 in the Township Hsd 214 School District.",public,h,"9,10,11,12",2121 South Goebbert Road,Arlington Heights,IL,17031.0,60005,(847) 718-7771,,Cook County,42.046337,-87.973595,Township Hsd 214 School District,215,http://www.d214.org,https://www.greatschools.org/illinois/arlington-heights/473-The-Academy-At-Forest-View/
1700475,170417001965,0501621403005,Vanguard School,"Vanguard School, a public school located in Arlington Heights, IL, serves grades 9-12 in the Township Hsd 214 School District.",public,h,"9,10,11,12",2121 South Goebbert Road,Arlington Heights,IL,17031.0,60005,(847) 718-7870,,Cook County,42.046337,-87.973595,Township Hsd 214 School District,215,http://www.d214.org,https://www.greatschools.org/illinois/arlington-heights/475-Vanguard-School/
1705644,BB980688,05016661S0000,Metropolitan Preparatory Schools,"Metropolitan Preparatory Schools, a private school located in Arlington Heights, IL, serves grades K-12 in the .",private,"e,m,h","KG,1,2,3,4,5,6,7,8,9,10,11,12",2525 East Oakton Street,Arlington Heights,IL,17031.0,60005,(847) 956-7912,,Cook,42.022305,-87.944,,0,,https://www.greatschools.org/illinois/arlington-heights/5644-Metropolitan-Preparatory-Schools/
1705977,170417004679,0501621403006,Newcomer Center,"Newcomer Center, a public school located in Arlington Heights, IL, serves grades 9-12 in the Township Hsd 214 School District.",public,h,"9,10,11,12",2121 South Goebbert Road,Arlington Heights,IL,17031.0,60005,(847) 718-7836,,Cook County,42.046337,-87.973595,Township Hsd 214 School District,215,nc.d14.org,https://www.greatschools.org/illinois/arlington-heights/5977-Newcomer-Center/
1707170,,05016909X0000,Arlington Montessori School,"Arlington Montessori School, a private school located in Arlington Heights, IL, serves grades PK-K in the .",private,"p,e","PK,KG",2025 S. Goebbert Road,Arlington Heights,IL,17031.0,60005,(847) 322-4267,(847) 222-4267,Cook,42.048199,-87.974174,,0,http://arlingtonmontessorischool.com,https://www.greatschools.org/illinois/arlington-heights/7170-Arlington-Montessori-School/
1707633,,,Kiddy Learning Station,"Kiddy Learning Station, a private school located in Arlington Heights, IL, serves grades PK-K in the .",private,"p,e","PK,KG",1340 West Algonquin Road #1372,Arlington Heights,IL,17031.0,60005,(847) 590-9776,,Cook,42.053543,-87.996681,,0,,https://www.greatschools.org/illinois/arlington-heights/7633-Kiddy-Learning-Station/
1709879,,0501621404600,Northwest Educational Council For Student Success,"Northwest Educational Council For Student Success, a public school located in Arlington Heights, IL, serves grades 9-12 in the Township Hsd 214 School District.",public,h,"9,10,11,12",2121 South Goebbert Road,Arlington Heights,IL,17031.0,60005,(847) 718-6801,,Cook,42.046185,-87.972099,Township Hsd 214 School District,215,,https://www.greatschools.org/illinois/arlington-heights/9879-Northwest-Educational-Council-For-Student-Success/
1710027,A0507494,,Jennifer Child Care,"Jennifer Child Care, a private school located in Elk Grove Village, IL, serves grades K in the .",private,e,KG,554 E Devon Ave,Elk Grove Village,IL,17031.0,60007,(847) 293-0203,,Cook,41.992908,-87.980957,,0,,https://www.greatschools.org/illinois/elk-grove-village/10027-Jennifer-Child-Care/
1710650,A0901472,,One School Global Chicago Campus,"One School Global Chicago Campus, a private school located in Elk Grove Village, IL, serves grades 3-12 in the .",private,"e,m,h","3,4,5,6,7,8,9,10,11,12",404 East Devon Avenue,Elk Grove Village,IL,17031.0,60007,(847) 593-4120,,Cook County,41.993259,-87.986801,,0,,https://www.greatschools.org/illinois/elk-grove-village/10650-Prairie-Lake-School/
1710842,,,Jennifer's Child Care & Llc,"Jennifer's Child Care & Llc, a private school located in Elk Grove Village, IL, serves grades PK-K in the .",private,"p,e","PK,KG",554 East Devon Avenue,Elk Grove Village,IL,17031.0,60007,(847) 640-1686,,Cook,41.992939,-87.980255,,0,,https://www.greatschools.org/illinois/elk-grove-village/10842-Jennifers-Child-Care--Llc/
1712040,,05016007Z0000,Sterling Central - Chicago Campus,"Sterling Central - Chicago Campus, a private school located in Elk Grove Village, IL, serves grades 3-12 in the .",private,"e,m,h","3,4,5,6,7,8,9,10,11,12",404 East Devon Avenue,Elk Grove Village,IL,17031.0,60007,(847) 593-4120,,Cook,41.993244,-87.986816,,0,,https://www.greatschools.org/illinois/elk-grove-village/12040-Sterling-Central---Chicago-Campus/
1713175,BB120629,,Childrens Christian Learning Center,"Childrens Christian Learning Center, a private school located in Elk Grove Village, IL, serves grades PK-K in the .",private,"p,e","PK,TK,KG",1900 Nerge Road,Elk Grove Village,IL,17031.0,60007,(847) 352-1968,,Cook County,41.999676,-88.056099,,0,,https://www.greatschools.org/illinois/elk-grove-village/13175-Childrens-Christian-Learning-Center/
1701987,171377001711,0501605902003,Clearmont Elementary School,"Clearmont Elementary School, a public school located in Elk Grove Village, IL, serves grades K-5 in the Comm Cons School District 59.",public,e,"KG,1,2,3,4,5",280 Clearmont Drive,Elk Grove Village,IL,17031.0,60007,(847) 593-4372,,Cook County,41.999947,-87.989029,Comm Cons School District 59,434,http://clearmont.ccsd59.org,https://www.greatschools.org/illinois/elk-grove-village/1987-Clearmont-Elementary-School/
1701988,171377001713,0501605902002,Adm Richard E Byrd Elementary School,"Adm Richard E Byrd Elementary School, a public school located in Elk Grove Village, IL, serves grades K-5 in the Comm Cons School District 59.",public,e,"KG,1,2,3,4,5",265 Wellington Avenue,Elk Grove Village,IL,17031.0,60007,(847) 593-4388,,Cook County,41.996399,-88.009277,Comm Cons School District 59,434,http://byrd.ccsd59.org,https://www.greatschools.org/illinois/elk-grove-village/1988-Adm-Richard-E-Byrd-Elementary-School/
1701990,171377001715,0501605901010,Grove Jr High School,"Grove Jr High School, a public school located in Elk Grove Village, IL, serves grades 6-8 in the Comm Cons School District 59.",public,m,"6,7,8",777 West Elk Grove Boulevard,Elk Grove Village,IL,17031.0,60007,(847) 593-4367,,Cook County,42.007294,-87.990585,Comm Cons School District 59,434,http://grove.ccsd59.org,https://www.greatschools.org/illinois/elk-grove-village/1990-Grove-Jr-High-School/
1701996,171377001723,0501605902018,Rupley Elementary School,"Rupley Elementary School, a public school located in Elk Grove Village, IL, serves grades K-5 in the Comm Cons School District 59.",public,e,"KG,1,2,3,4,5",305 Oakton Street,Elk Grove Village,IL,17031.0,60007,(847) 593-4353,,Cook County,42.0215,-87.985214,Comm Cons School District 59,434,http://rupley.ccsd59.org,https://www.greatschools.org/illinois/elk-grove-village/1996-Rupley-Elementary-School/
1701997,171377001726,0501605902019,Salt Creek Elementary School,"Salt Creek Elementary School, a public school located in Elk Grove Village, IL, serves grades K-5 in the Comm Cons School District 59.",public,e,"KG,1,2,3,4,5",65 Jf Kennedy Boulevard,Elk Grove Village,IL,17031.0,60007,(847) 593-4375,,Cook County,42.002808,-87.999458,Comm Cons School District 59,434,http://saltcreek.ccsd59.org,https://www.greatschools.org/illinois/elk-grove-village/1997-Salt-Creek-Elementary-School/
1703625,173474003631,0501605402028,Adlai Stevenson Elementary School,"Adlai Stevenson Elementary School, a public school located in Elk Grove Village, IL, serves grades K-6 in the Schaumburg Central Consolidated School District 54.",public,e,"KG,1,2,3,4,5,6",1414 Armstrong Lane,Elk Grove Village,IL,17031.0,60007,(847) 357-5200,,Cook County,41.998314,-88.039749,Schaumburg Central Consolidated School District 54,900,http://www.sd54.org,https://www.greatschools.org/illinois/elk-grove-village/3625-Adlai-Stevenson-Elementary-School/
1703626,173474003632,0501605402023,Adolph Link Elementary School,"Adolph Link Elementary School, a public school located in Elk Grove Village, IL, serves grades K-6 in the Schaumburg Central Consolidated School District 54.",public,e,"KG,1,2,3,4,5,6",900 West Glenn Trail,Elk Grove Village,IL,17031.0,60007,(847) 357-5300,,Cook County,42.006363,-88.039299,Schaumburg Central Consolidated School District 54,900,http://www.sd54.org,https://www.greatschools.org/illinois/elk-grove-village/3626-Adolph-Link-Elementary-School/
1703648,173474004428,0501605401019,Margaret Mead Junior High School,"Margaret Mead Junior High School, a public school located in Elk Grove Village, IL, serves grades 7-8 in the Schaumburg Central Consolidated School District 54.",public,m,"7,8",1765 Biesterfield Road,Elk Grove Village,IL,17031.0,60007,(847) 357-6000,,Cook County,42.009811,-88.05352,Schaumburg Central Consolidated School District 54,900,http://www.sd54.org,https://www.greatschools.org/illinois/elk-grove-village/3648-Margaret-Mead-Junior-High-School/
1700469,170417000111,0501621400002,Elk Grove High School,"Elk Grove High School, a public school located in Elk Grove Village, IL, serves grades 9-12 in the Township Hsd 214 School District.",public,h,"9,10,11,12",500 West Elk Grove Boulevard,Elk Grove Village,IL,17031.0,60007,(847) 718-4400,,Cook County,42.01125,-87.997757,Township Hsd 214 School District,215,http://www.d214.org,https://www.greatschools.org/illinois/elk-grove-village/469-Elk-Grove-High-School/
1706003,171377004568,0501605902020,Ridge Family Center For Learning,"Ridge Family Center For Learning, a public school located in Elk Grove Village, IL, serves grades PK-5 in the Comm Cons School District 59.",public,"p,e","PK,KG,1,2,3,4,5",650 Ridge Avenue,Elk Grove Village,IL,17031.0,60007,(847) 593-4070,,Cook County,42.009846,-87.990059,Comm Cons School District 59,434,http://www.ccsd59.org,https://www.greatschools.org/illinois/elk-grove-village/6003-Ridge-Family-Center-For-Learning/
1706671,A0301330,05016387X0000,Childrens Christian Learning Center,"Childrens Christian Learning Center, a private school located in Elk Grove Village, IL, serves grades PK-K in the .",private,"p,e","PK,KG",1900 Nerge Road,Elk Grove Village,IL,17031.0,60007,(847) 352-1968,,Cook,41.99992,-88.056015,,0,,https://www.greatschools.org/illinois/elk-grove-village/6671-Childrens-Christian-Learning-Center/
1707095,00342816,05016553X0000,Queen Of The Rosary School,"Queen Of The Rosary School, a private school located in Elk Grove Village, IL, serves grades PK-8 in the .",private,"p,e,m","PK,TK,KG,1,2,3,4,5,6,7,8",690 West Elk Grove Boulevard,Elk Grove Village,IL,17031.0,60007,(847) 437-3322,,Cook County,42.007896,-87.994026,,0,http://www.qrcougars.org,https://www.greatschools.org/illinois/elk-grove-village/7095-Queen-Of-The-Rosary-School/
1708447,A0103099,,Kindercare Learning Center,"Kindercare Learning Center, a private school located in Elk Grove Village, IL, serves grades PK-K in the .",private,"p,e","PK,KG",800 South Arlington Heights Road,Elk Grove Village,IL,17031.0,60007,(847) 956-7123,(847) 956-7129,Cook,42.006069,-88.004456,,0,http://www.kindercare.com/our-centers/elk-grove/il/301167/?cid=greatschools_301167,https://www.greatschools.org/illinois/elk-grove-village/8447-Kindercare-Learning-Center/
1708701,,,Grace International Ps,"Grace International Ps, a private school located in Elk Grove Village, IL, serves grades PK-K in the .",private,"p,e","PK,KG",150 Lions Drive,Elk Grove Village,IL,17031.0,60007,,(847) 290-0312,Cook,42.008732,-87.995422,,0,http://www.graceinternationalpreschool.com/,https://www.greatschools.org/illinois/elk-grove-village/8701-Grace-International-Ps/
1712770,170417006268,0501621403007,SIGWALT CLS CENTER,"SIGWALT CLS CENTER, a public school located in Rolling Meadows, IL, serves grades 12 in the Township Hsd 214 School District.",public,h,12,2702 Sigwalt Street,Rolling Meadows,IL,17031.0,60008,(847) 718-4050,,Cook County,42.083038,-88.014854,Township Hsd 214 School District,215,http://www.d214.org,https://www.greatschools.org/illinois/rolling-meadows/12770-SIGWALT-CLS-CENTER/
1713308,BB170173,,St Colette Catholic School,"St Colette Catholic School, a private school located in Rolling Meadows, IL, serves grades PK-8 in the .",private,"p,e,m","PK,TK,KG,1,2,3,4,5,6,7,8",3900 Meadow Drive,Rolling Meadows,IL,17031.0,60008,(847) 392-4098,,Cook County,42.069523,-88.016357,,0,,https://www.greatschools.org/illinois/rolling-meadows/13308-St-Colette-Catholic-School/
1703199,173042001179,0501601503001,John G Conyers Learning Academy,"John G Conyers Learning Academy, a public school located in Rolling Meadows, IL, serves grades PK-8 in the Palatine Central Consolidated School District 15.",public,"p,e,m","PK,KG,1,2,3,4,5,6,7,8",2800 Central Road,Rolling Meadows,IL,17031.0,60008,(847) 963-3400,,Cook County,42.067204,-88.016594,Palatine Central Consolidated School District 15,794,http://www.ccsd15.net,https://www.greatschools.org/illinois/rolling-meadows/3199-John-G-Conyers-Learning-Academy/
1703200,173042003144,0501601502003,Central Road Elementary School,"Central Road Elementary School, a public school located in Rolling Meadows, IL, serves grades PK-6 in the Palatine Central Consolidated School District 15.",public,"p,e","PK,KG,1,2,3,4,5,6",3800 Central Road,Rolling Meadows,IL,17031.0,60008,(847) 963-5100,,Cook County,42.067299,-88.026108,Palatine Central Consolidated School District 15,794,http://www.ccsd15.net,https://www.greatschools.org/illinois/rolling-meadows/3200-Central-Road-Elementary-School/
1703203,173042003148,0501601502005,Kimball Hill Elementary School,"Kimball Hill Elementary School, a public school located in Rolling Meadows, IL, serves grades PK-6 in the Palatine Central Consolidated School District 15.",public,"p,e","PK,KG,1,2,3,4,5,6",2905 Meadow Drive,Rolling Meadows,IL,17031.0,60008,(847) 963-5200,,Cook County,42.080666,-88.01844,Palatine Central Consolidated School District 15,794,http://www.ccsd15.net,https://www.greatschools.org/illinois/rolling-meadows/3203-Kimball-Hill-Elementary-School/
1703209,173042003154,0501601501011,Plum Grove Jr High School,"Plum Grove Jr High School, a public school located in Rolling Meadows, IL, serves grades 7-8 in the Palatine Central Consolidated School District 15.",public,m,"7,8",2600 Plum Grove Road,Rolling Meadows,IL,17031.0,60008,(847) 963-7600,,Cook County,42.083233,-88.045479,Palatine Central Consolidated School District 15,794,http://www.ccsd15.net,https://www.greatschools.org/illinois/rolling-meadows/3209-Plum-Grove-Jr-High-School/
1703212,173042003157,0501601501014,Carl Sandburg Jr High School,"Carl Sandburg Jr High School, a public school located in Rolling Meadows, IL, serves grades 7-8 in the Palatine Central Consolidated School District 15.",public,m,"7,8",2600 Martin Lane,Rolling Meadows,IL,17031.0,60008,(847) 963-7800,,Cook County,42.07457,-88.014,Palatine Central Consolidated School District 15,794,http://www.ccsd15.net,https://www.greatschools.org/illinois/rolling-meadows/3212-Carl-Sandburg-Jr-High-School/
1703213,173042003159,0501601502018,Willow Bend Elementary School,"Willow Bend Elementary School, a public school located in Rolling Meadows, IL, serves grades PK-6 in the Palatine Central Consolidated School District 15.",public,"p,e","PK,KG,1,2,3,4,5,6",4700 Barker Avenue,Rolling Meadows,IL,17031.0,60008,(847) 963-7300,,Cook County,42.062897,-88.018585,Palatine Central Consolidated School District 15,794,http://www.ccsd15.net,https://www.greatschools.org/illinois/rolling-meadows/3213-Willow-Bend-Elementary-School/
1704452,00342226,05016303X0000,St Colette School,"St Colette School, a private school located in Rolling Meadows, IL, serves grades PK-8 in the .",private,"p,e,m","PK,TK,KG,1,2,3,4,5,6,7,8",3940 Pheasant Drive,Rolling Meadows,IL,17031.0,60008,(847) 392-4098,,Cook County,42.070435,-88.018166,,0,www.stcolette.com,https://www.greatschools.org/illinois/rolling-meadows/4452-St-Colette-School/
1700472,170417000115,0501621400007,Rolling Meadows High School,"Rolling Meadows High School, a public school located in Rolling Meadows, IL, serves grades 9-12 in the Township Hsd 214 School District.",public,h,"9,10,11,12",2901 Central Road,Rolling Meadows,IL,17031.0,60008,(847) 718-5600,,Cook County,42.064926,-88.015877,Township Hsd 214 School District,215,http://www.d214.org,https://www.greatschools.org/illinois/rolling-meadows/472-Rolling-Meadows-High-School/
1709339,,,Acorn Oaks Pre-School,"Acorn Oaks Pre-School, a private school located in Rolling Meadows, IL, serves grades PK-K in the .",private,"p,e","PK,KG",4321 East Wilmette Avenue,Rolling Meadows,IL,17031.0,60008,(847) 991-7900,,Cook,42.093437,-88.035522,,0,,https://www.greatschools.org/illinois/rolling-meadows/9339-Acorn-Oaks-Pre-School/
1710538,,31045107Z0000,Griffin Christian School,"Griffin Christian School, a private school located in Barrington, IL, serves grades PK-12 in the .",private,"p,e,m,h","PK,KG,1,2,3,4,5,6,7,8,9,10,11,12",16N562 Vista Lane,Barrington,IL,17089.0,60010,(847) 428-5413,,Kane,42.104336,-88.25515,,0,http://www.griffinchristianschool.org/,https://www.greatschools.org/illinois/barrington/10538-Griffin-Christian-School/
1713158,A1370657,,Bright Horizons,"Bright Horizons, a private school located in Deer Park, IL, serves grades PK-K in the .",private,"p,e","PK,TK,KG",21955 West Field Parkway,Deer Park,IL,17097.0,60010,(847) 719-2070,,Lake County,42.156776,-88.061905,,0,,https://www.greatschools.org/illinois/deer-park/13158-Bright-Horizons/
1713258,A1701577,,Montessori Children's House of N. Barrington,"Montessori Children's House of N. Barrington, a private school located in North Barrington, IL, serves grades PK-K in the .",private,"p,e","PK,TK,KG",115 Clover Hill Lane,North Barrington,IL,17097.0,60010,(847) 550-0917,,Lake County,42.210632,-88.118401,,0,,https://www.greatschools.org/illinois/north-barrington/13258-Montessori-Childrens-House-Of-N.-Barrington/
1713267,A1390173,,Noahs Ark Christian Preschool,"Noahs Ark Christian Preschool, a private school located in Barrington, IL, serves grades PK-K in the .",private,"p,e","PK,TK,KG",98 Algonquin Road,Barrington,IL,17031.0,60010,(847) 844-3738,,Cook County,42.112488,-88.176315,,0,,https://www.greatschools.org/illinois/barrington/13267-Noahs-Ark-Christian-Preschool/
1705384,A9501625,34049106X0000,Creative Learning Montessori School,"Creative Learning Montessori School, a private school located in Barrington, IL, serves grades Ungraded in the .",private,"e,m,h",UG,1410 South Barrington Road,Barrington,IL,17031.0,60010,(847) 382-2812,(847) 382-3423,Cook County,42.135601,-88.136208,,0,www.creativelearningmontessori.org,https://www.greatschools.org/illinois/barrington/5384-Creative-Learning-Montessori-School/
1700545,170505000044,3404922001004,Barrington Middle School- Prairie Campus,"Barrington Middle School- Prairie Campus, a public school located in Barrington, IL, serves grades 6-8 in the Barrington Community Unit School District 220.",public,m,"6,7,8",40 East Dundee Road,Barrington,IL,17031.0,60010,(847) 304-3990,,Cook County,42.130249,-88.12365,Barrington Community Unit School District 220,234,http://www.barrington220.org,https://www.greatschools.org/illinois/barrington/545-Barrington-Mdle-School--Prairie-Cmps/
1700546,170505000188,3404922000004,Barrington High School,"Barrington High School, a public school located in Barrington, IL, serves grades 9-12 in the Barrington Community Unit School District 220.",public,h,"9,10,11,12",616 West Main Street,Barrington,IL,17097.0,60010,(847) 381-1400,,Lake County,42.162277,-88.151215,Barrington Community Unit School District 220,234,http://www.barrington220.org,https://www.greatschools.org/illinois/barrington/546-Barrington-High-School/
1700547,170505000189,3404922002001,Countryside Elementary School,"Countryside Elementary School, a public school located in Barrington, IL, serves grades K-5 in the Barrington Community Unit School District 220.",public,e,"KG,1,2,3,4,5",205 West County Line Road,Barrington,IL,17031.0,60010,(847) 381-1162,,Cook County,42.153069,-88.177078,Barrington Community Unit School District 220,234,http://www.barrington220.org,https://www.greatschools.org/illinois/barrington/547-Countryside-Elementary-School/
1700548,170505000190,3404922002002,Hough Street Elementary School,"Hough Street Elementary School, a public school located in Barrington, IL, serves grades K-5 in the Barrington Community Unit School District 220.",public,e,"KG,1,2,3,4,5",310 South Hough Street,Barrington,IL,17031.0,60010,(847) 381-1108,,Cook County,42.151993,-88.136688,Barrington Community Unit School District 220,234,http://www.barrington220.org,https://www.greatschools.org/illinois/barrington/548-Hough-Street-Elementary-School/
1700549,170505000191,3404922002005,North Barrington Elementary School,"North Barrington Elementary School, a public school located in North Barrington, IL, serves grades K-5 in the Barrington Community Unit School District 220.",public,e,"KG,1,2,3,4,5",24175 North Grandview Drive,North Barrington,IL,17097.0,60010,(847) 381-4340,,Lake County,42.213955,-88.13916,Barrington Community Unit School District 220,234,http://www.barrington220.org,https://www.greatschools.org/illinois/north-barrington/549-North-Barrington-Elementary-School/
1700550,170505000192,3404922001003,Barrington Middle School Station,"Barrington Middle School Station, a public school located in Barrington, IL, serves grades 6-8 in the Barrington Community Unit School District 220.",public,m,"6,7,8",215 Eastern Avenue,Barrington,IL,17031.0,60010,(847) 756-6400,,Cook County,42.151867,-88.121544,Barrington Community Unit School District 220,234,http://www.barrington220.org,https://www.greatschools.org/illinois/barrington/550-Barrington-Middle-School-Station/
1700552,170505000194,3404922002006,Roslyn Road Elementary School,"Roslyn Road Elementary School, a public school located in Barrington, IL, serves grades K-5 in the Barrington Community Unit School District 220.",public,e,"KG,1,2,3,4,5",224 West Roslyn Road,Barrington,IL,17097.0,60010,(847) 381-4148,,Lake County,42.166626,-88.139229,Barrington Community Unit School District 220,234,http://www.barrington220.org,https://www.greatschools.org/illinois/barrington/552-Roslyn-Road-Elementary-School/
1700553,170505000195,3404922002007,Arnett C Lines Elementary School,"Arnett C Lines Elementary School, a public school located in Barrington, IL, serves grades K-5 in the Barrington Community Unit School District 220.",public,e,"KG,1,2,3,4,5",217 Eastern Avenue,Barrington,IL,17031.0,60010,(847) 381-7850,,Cook County,42.151833,-88.121544,Barrington Community Unit School District 220,234,http://www.barrington220.org,https://www.greatschools.org/illinois/barrington/553-Arnett-C-Lines-Elementary-School/
1700554,170505000196,3404922002004,Grove Avenue Elementary School,"Grove Avenue Elementary School, a public school located in Barrington, IL, serves grades K-5 in the Barrington Community Unit School District 220.",public,e,"KG,1,2,3,4,5",900 South Grove Avenue,Barrington,IL,17031.0,60010,(847) 381-1888,,Cook County,42.14299,-88.133484,Barrington Community Unit School District 220,234,http://www.barrington220.org,https://www.greatschools.org/illinois/barrington/554-Grove-Avenue-Elementary-School/
1700555,170505002987,3404922002009,Barbara B Rose Elementary School,"Barbara B Rose Elementary School, a public school located in South Barrington, IL, serves grades K-5 in the Barrington Community Unit School District 220.",public,e,"KG,1,2,3,4,5",61 West Penny Road,South Barrington,IL,17031.0,60010,(847) 844-1200,,Cook County,42.094852,-88.17807,Barrington Community Unit School District 220,234,http://www.barrington220.org,https://www.greatschools.org/illinois/south-barrington/555-Barbara-B-Rose-Elementary-School/
1705555,00344176,34049017X0000,St Anne School,"St Anne School, a private school located in Barrington, IL, serves grades PK-8 in the .",private,"p,e,m","PK,TK,KG,1,2,3,4,5,6,7,8",319 Franklin Street,Barrington,IL,17097.0,60010,(847) 381-0311,,Lake County,42.155247,-88.132645,,0,,https://www.greatschools.org/illinois/barrington/5555-St-Anne-School/
1706202,K9500239,34049097X0000,Montessori Children's House Of North Barrington,"Montessori Children's House Of North Barrington, a private school located in North Barrington, IL, serves grades PK-K in the .",private,"p,e","PK,KG",115 Clover Hill Lane,North Barrington,IL,17097.0,60010,(847) 550-0917,,Lake,42.210751,-88.118202,,0,www.mchnb.net,https://www.greatschools.org/illinois/north-barrington/6202-Montessori-Childrens-House-Of-North-Barrington/
1706307,A9102562,34049111X0000,St Marks Day School,"St Marks Day School, a private school located in Barrington, IL, serves grades PK-K in the .",private,"p,e","PK,KG",337 Ridge Road,Barrington,IL,17097.0,60010,(847) 381-9172,,Lake,42.179153,-88.198296,,0,,https://www.greatschools.org/illinois/barrington/6307-St-Marks-Day-School/
1707675,,,Lake Barrington Academy-Stars,"Lake Barrington Academy-Stars, a private school located in Lake Barrington, IL, serves grades PK-K in the .",private,"p,e","PK,KG",22102 North Pepper Road,Lake Barrington,IL,17097.0,60010,(847) 382-7350,,Lake,42.184795,-88.186264,,0,http://www.lakebarringtonacademyofstars.com/,https://www.greatschools.org/illinois/lake-barrington/7675-Lake-Barrington-Academy-Stars/
1707677,,,Bumc Noah's Ark Christian Pre-School,"Bumc Noah's Ark Christian Pre-School, a private school located in Barrington, IL, serves grades PK-K in the .",private,"p,e","PK,KG",98 Algonquin Road,Barrington,IL,17031.0,60010,(847) 836-5540,,Cook,42.11245,-88.176201,,0,,https://www.greatschools.org/illinois/barrington/7677-Bumc-Noahs-Ark-Christian-Pre-School/
1712352,,4406303270219,Alexander Leigh Center For Autism,"Alexander Leigh Center For Autism, a private school located in Crystal Lake, IL, serves grades Ungraded in the .",private,"e,m,h",UG,620 Illinois 31,Crystal Lake,IL,17111.0,60012,(815) 477-2522,,McHenry,42.258575,-88.288055,,0,,https://www.greatschools.org/illinois/crystal-lake/12352-Alexander-Leigh-Center-For-Autism/
1701670,171137002154,4406315500004,Prairie Ridge High School,"Prairie Ridge High School, a public school located in Crystal Lake, IL, serves grades 9-12 in the Chsd 155 School District.",public,h,"9,10,11,12",6000 Dvorak Drive,Crystal Lake,IL,17111.0,60012,(815) 479-0404,,McHenry County,42.270264,-88.314148,Chsd 155 School District,373,http://ww2.d155.org/pr/default.aspx,https://www.greatschools.org/illinois/crystal-lake/1670-Prairie-Ridge-High-School/
1705492,AA900018,44063034X0000,Lord and Savior Lutheran,"Lord and Savior Lutheran, a private school located in Crystal Lake, IL, serves grades PK-8 in the .",private,"p,e,m","PK,TK,KG,1,2,3,4,5,6,7,8",9300 RIDGEFIELD RD,Crystal Lake,IL,17111.0,60012,(815) 455-4175,(815) 455-9725,MCHENRY,42.273197,-88.314209,,0,www.lordandsavior.org,https://www.greatschools.org/illinois/crystal-lake/5492-Lord-And-Savior-Lutheran/
1706060,A9501611,44063044X0000,Children's Gate Montessori,"Children's Gate Montessori, a private school located in Crystal Lake, IL, serves grades PK-K in the .",private,"p,e","PK,KG",3419 Walkup Road,Crystal Lake,IL,17111.0,60012,(815) 459-2646,,McHenry,42.278934,-88.321198,,0,,https://www.greatschools.org/illinois/crystal-lake/6060-Childrens-Gate-Montessori/
1708280,,,Kindercare Learning Center,"Kindercare Learning Center, a private school located in Crystal Lake, IL, serves grades PK-K in the .",private,"p,e","PK,KG",645 Dakota Street,Crystal Lake,IL,17111.0,60012,(815) 477-2580,,McHenry,42.249935,-88.297241,,0,http://www.kindercare.com/our-centers/crystal-lake/il/301778/?cid=greatschools_301778,https://www.greatschools.org/illinois/crystal-lake/8280-Kindercare-Learning-Center/
1710125,A0700879,44063045X0000,Trinity Oaks Christian Academy,"Trinity Oaks Christian Academy, a private school located in Cary, IL, serves grades PK-12 in the .",private,"p,e,m,h","PK,TK,KG,1,2,3,4,5,6,7,8,9,10,11,12",233 Trinity Oaks Way,Cary,IL,17111.0,60013,(847) 462-5971,,McHenry County,42.214882,-88.232048,,0,www.trinity-oaks.org,https://www.greatschools.org/illinois/cary/10125-Trinity-Oaks-Christian-Academy/
1710628,A0901440,,Holy Cross Lutheran Preschool,"Holy Cross Lutheran Preschool, a private school located in Cary, IL, serves grades K in the .",private,e,KG,2107 3 Oaks Road,Cary,IL,17111.0,60013,(847) 639-6533,,McHenry,42.219173,-88.239723,,0,http://www.holycrosscary.org/,https://www.greatschools.org/illinois/cary/10628-Holy-Cross-Lutheran-Preschool/
1713094,170873006622,4406302602007,Oak Knoll Early Childhood Center,"Oak Knoll Early Childhood Center, a public school located in Cary, IL, serves grades PK-K in the Cary Central Consolidated School District 26.",public,"p,e","PK,KG",409 North 1st Street,Cary,IL,17111.0,60013,(224) 357-5550,,McHenry County,42.21423,-88.236603,Cary Central Consolidated School District 26,315,,https://www.greatschools.org/illinois/cary/13094-Oak-Knoll-Early-Childhood-Center/
1701667,171137001366,4406315500002,Cary-Grove Community High School,"Cary-Grove Community High School, a public school located in Cary, IL, serves grades 9-12 in the Chsd 155 School District.",public,h,"9,10,11,12",2208 Three Oaks Road,Cary,IL,17111.0,60013,(847) 639-3825,,McHenry County,42.221298,-88.244499,Chsd 155 School District,373,,https://www.greatschools.org/illinois/cary/1667-Cary-Grove-Community-High-School/
1704791,00348137,44063003X0000,Ss Peter & Paul School,"Ss Peter & Paul School, a private school located in Cary, IL, serves grades PK-8 in the .",private,"p,e,m","PK,TK,KG,1,2,3,4,5,6,7,8",416 North 1st Street,Cary,IL,17111.0,60013,(847) 639-3041,,McHenry County,42.215012,-88.240417,,0,,https://www.greatschools.org/illinois/cary/4791-Ss-Peter--Paul-School/
1707859,,,Holy Cross Lutheran Pre-School,"Holy Cross Lutheran Pre-School, a private school located in Cary, IL, serves grades PK-K in the .",private,"p,e","PK,KG",2107 3 Oaks Road,Cary,IL,17111.0,60013,(847) 639-6533,,McHenry,42.219173,-88.239723,,0,,https://www.greatschools.org/illinois/cary/7859-Holy-Cross-Lutheran-Pre-School/
1707860,A0507586,,Kindercare Learning Center,"Kindercare Learning Center, a private school located in Cary, IL, serves grades PK-K in the .",private,"p,e","PK,KG",324 Crystal Street,Cary,IL,17111.0,60013,(847) 639-8899,(847) 639-8908,McHenry,42.211903,-88.245331,,0,http://www.kindercare.com/our-centers/cary/il/301347/?cid=greatschools_301347,https://www.greatschools.org/illinois/cary/7860-Kindercare-Learning-Center/
1707862,,,St Barnabas Christian Pre-School,"St Barnabas Christian Pre-School, a private school located in Cary, IL, serves grades PK-K in the .",private,"p,e","PK,KG",8901 Cary Algonquin Road,Cary,IL,17111.0,60013,(847) 516-4171,,McHenry,42.200348,-88.262451,,0,,https://www.greatschools.org/illinois/cary/7862-St-Barnabas-Christian-Pre-School/
1700855,170873000512,4406302602002,Briargate Elementary School,"Briargate Elementary School, a public school located in Cary, IL, serves grades 1-5 in the Cary Central Consolidated School District 26.",public,e,"1,2,3,4,5",100 South Wulff Street,Cary,IL,17111.0,60013,(224) 357-5250,,McHenry County,42.206207,-88.252647,Cary Central Consolidated School District 26,315,http://www.cary26.org,https://www.greatschools.org/illinois/cary/855-Briargate-Elementary-School/
1700856,170873000513,4406302601004,Cary Jr High School,"Cary Jr High School, a public school located in Cary, IL, serves grades 6-8 in the Cary Central Consolidated School District 26.",public,m,"6,7,8",2109 Crystal Lake Road,Cary,IL,17111.0,60013,(224) 357-5150,,McHenry County,42.229725,-88.239586,Cary Central Consolidated School District 26,315,http://www.cary26.org,https://www.greatschools.org/illinois/cary/856-Cary-Jr-High-School/
1700859,170873000573,4406302602004,Three Oaks School,"Three Oaks School, a public school located in Cary, IL, serves grades K-5 in the Cary Central Consolidated School District 26.",public,e,"KG,1,2,3,4,5",1514 Three Oaks Road,Cary,IL,17111.0,60013,(224) 357-5450,,McHenry County,42.220974,-88.229301,Cary Central Consolidated School District 26,315,http://www.cary26.org,https://www.greatschools.org/illinois/cary/859-Three-Oaks-School/
1700860,170873003137,4406302602005,Deer Path Elementary School,"Deer Path Elementary School, a public school located in Cary, IL, serves grades K-6 in the Cary Central Consolidated School District 26.",public,e,"KG,1,2,3,4,5,6",2211 Crystal Lake Road,Cary,IL,17111.0,60013,(224) 357-5350,,McHenry County,42.232883,-88.241325,Cary Central Consolidated School District 26,315,http://www.cary26.org,https://www.greatschools.org/illinois/cary/860-Deer-Path-Elementary-School/
1710814,,,Ymca Child Care Center-Prare Grve,"Ymca Child Care Center-Prare Grve, a private school located in Crystal Lake, IL, serves grades PK-K in the .",private,"p,e","PK,KG",701 Manor Street,Crystal Lake,IL,17111.0,60014,(815) 459-4455,,McHenry,42.220531,-88.291214,,0,,https://www.greatschools.org/illinois/crystal-lake/10814-Ymca-Child-Care-Center-Prare-Grve/
1713396,A1370724,,Kids R Kids Learning Academy,"Kids R Kids Learning Academy, a private school located in Crystal Lake, IL, serves grades PK-K in the .",private,"p,e","PK,TK,KG",475 Alexandra Boulevard,Crystal Lake,IL,17111.0,60014,(815) 455-5437,,McHenry County,42.199047,-88.338432,,0,,https://www.greatschools.org/illinois/crystal-lake/13396-Kids-R-Kids-Learning-Academy/
1713476,171137006754,4406315503001,Haber Oaks Campus,"Haber Oaks Campus, a public school located in Crystal Lake, IL, serves grades 9-12 in the Chsd 155 School District.",public,h,"9,10,11,12",1200 S Mchenry Ave,Crystal Lake,IL,17111.0,60014,(815) 893-5300,,McHenry County,42.210762,-88.340439,Chsd 155 School District,373,,https://www.greatschools.org/illinois/crystal-lake/13476-Haber-Oaks-Campus/
1701656,171135001357,4406304702001,Canterbury Elementary School,"Canterbury Elementary School, a public school located in Crystal Lake, IL, serves grades K-5 in the Crystal Lake Central Consolidated School District 47.",public,e,"KG,1,2,3,4,5",875 Canterbury Drive,Crystal Lake,IL,17111.0,60014,(815) 459-8180,,McHenry County,42.217442,-88.318306,Crystal Lake Central Consolidated School District 47,372,http://www.d47.org/can,https://www.greatschools.org/illinois/crystal-lake/1656-Canterbury-Elementary-School/
1701657,171135001358,4406304702002,Husmann Elementary School,"Husmann Elementary School, a public school located in Crystal Lake, IL, serves grades K-5 in the Crystal Lake Central Consolidated School District 47.",public,e,"KG,1,2,3,4,5",131 West Paddock Street,Crystal Lake,IL,17111.0,60014,(815) 459-7114,,McHenry County,42.238789,-88.325386,Crystal Lake Central Consolidated School District 47,372,http://www.d47.org/hus,https://www.greatschools.org/illinois/crystal-lake/1657-Husmann-Elementary-School/
1701658,171135001359,4406304702003,Coventry Elementary School,"Coventry Elementary School, a public school located in Crystal Lake, IL, serves grades K-5 in the Crystal Lake Central Consolidated School District 47.",public,e,"KG,1,2,3,4,5",820 Darlington Lane,Crystal Lake,IL,17111.0,60014,(815) 459-4231,,McHenry County,42.217533,-88.328194,Crystal Lake Central Consolidated School District 47,372,http://www.d47.org/cov,https://www.greatschools.org/illinois/crystal-lake/1658-Coventry-Elementary-School/
1701659,171135001360,4406304701004,Lundahl Middle School,"Lundahl Middle School, a public school located in Crystal Lake, IL, serves grades 6-8 in the Crystal Lake Central Consolidated School District 47.",public,m,"6,7,8",560 Nash Road,Crystal Lake,IL,17111.0,60014,(815) 459-5971,,McHenry County,42.224804,-88.3405,Crystal Lake Central Consolidated School District 47,372,http://www.d47.org/lms,https://www.greatschools.org/illinois/crystal-lake/1659-Lundahl-Middle-School/
1701660,171135001361,4406304702005,North Elementary School,"North Elementary School, a public school located in Crystal Lake, IL, serves grades K-5 in the Crystal Lake Central Consolidated School District 47.",public,e,"KG,1,2,3,4,5",500 West Woodstock Street,Crystal Lake,IL,17111.0,60014,(815) 459-0122,,McHenry County,42.245441,-88.339096,Crystal Lake Central Consolidated School District 47,372,http://www.d47.org/nor,https://www.greatschools.org/illinois/crystal-lake/1660-North-Elementary-School/
1701661,171135001362,4406304701006,Richard F Bernotas Middle School,"Richard F Bernotas Middle School, a public school located in Crystal Lake, IL, serves grades 6-8 in the Crystal Lake Central Consolidated School District 47.",public,m,"6,7,8",170 North Oak Street,Crystal Lake,IL,17111.0,60014,(815) 459-9210,,McHenry County,42.246387,-88.337288,Crystal Lake Central Consolidated School District 47,372,http://www.d47.org/rbm,https://www.greatschools.org/illinois/crystal-lake/1661-Richard-F-Bernotas-Middle-School/
1701662,171135001364,4406304702007,South Elementary School,"South Elementary School, a public school located in Crystal Lake, IL, serves grades K-5 in the Crystal Lake Central Consolidated School District 47.",public,e,"KG,1,2,3,4,5",601 Golf Road,Crystal Lake,IL,17111.0,60014,(815) 459-1143,,McHenry County,42.227604,-88.341812,Crystal Lake Central Consolidated School District 47,372,http://www.d47.org/sou,https://www.greatschools.org/illinois/crystal-lake/1662-South-Elementary-School/
1701663,171135001365,4406304702008,West Elementary School,"West Elementary School, a public school located in Crystal Lake, IL, serves grades K-5 in the Crystal Lake Central Consolidated School District 47.",public,e,"KG,1,2,3,4,5",100 Briarwood Drive,Crystal Lake,IL,17111.0,60014,(815) 459-2749,,McHenry County,42.23761,-88.375473,Crystal Lake Central Consolidated School District 47,372,http://www.d47.org/wes,https://www.greatschools.org/illinois/crystal-lake/1663-West-Elementary-School/
1701664,171135001799,4406304701005,Hannah Beardsley Middle School,"Hannah Beardsley Middle School, a public school located in Crystal Lake, IL, serves grades 6-8 in the Crystal Lake Central Consolidated School District 47.",public,m,"6,7,8",515 East Crystal Lake Avenue,Crystal Lake,IL,17111.0,60014,(815) 477-5897,,McHenry County,42.240185,-88.301544,Crystal Lake Central Consolidated School District 47,372,http://www.d47.org/lms,https://www.greatschools.org/illinois/crystal-lake/1664-Hannah-Beardsley-Middle-School/
1701665,171135002147,4406304702010,Woods Creek Elementary School,"Woods Creek Elementary School, a public school located in Crystal Lake, IL, serves grades K-5 in the Crystal Lake Central Consolidated School District 47.",public,e,"KG,1,2,3,4,5",1100 Alexandra Boulevard,Crystal Lake,IL,17111.0,60014,(815) 356-2720,,McHenry County,42.200394,-88.360954,Crystal Lake Central Consolidated School District 47,372,http://www.d47.org/wds,https://www.greatschools.org/illinois/crystal-lake/1665-Woods-Creek-Elementary-School/
1701666,171135005586,4406304702009,Indian Prairie Elementary School,"Indian Prairie Elementary School, a public school located in Crystal Lake, IL, serves grades K-5 in the Crystal Lake Central Consolidated School District 47.",public,e,"KG,1,2,3,4,5",651 Village Road,Crystal Lake,IL,17111.0,60014,(815) 459-2124,,McHenry County,42.192993,-88.344475,Crystal Lake Central Consolidated School District 47,372,http://www.d47.org/ips,https://www.greatschools.org/illinois/crystal-lake/1666-Indian-Prairie-Elementary-School/
1701668,171137001367,4406315500001,Crystal Lake Central High School,"Crystal Lake Central High School, a public school located in Crystal Lake, IL, serves grades 9-12 in the Chsd 155 School District.",public,h,"9,10,11,12",45 West Franklin Street,Crystal Lake,IL,17111.0,60014,(815) 459-2505,,McHenry County,42.237091,-88.322441,Chsd 155 School District,373,,https://www.greatschools.org/illinois/crystal-lake/1668-Crystal-Lake-Central-High-School/
1701669,171137001368,4406315500003,Crystal Lake South High School,"Crystal Lake South High School, a public school located in Crystal Lake, IL, serves grades 9-12 in the Chsd 155 School District.",public,h,"9,10,11,12",1200 South McHenry Avenue,Crystal Lake,IL,17111.0,60014,(815) 455-3860,,McHenry County,42.218307,-88.338654,Chsd 155 School District,373,https://cls.d155.org/,https://www.greatschools.org/illinois/crystal-lake/1669-Crystal-Lake-South-High-School/
1703412,173252003380,4406304602001,Prairie Grove Elementary School,"Prairie Grove Elementary School, a public school located in Crystal Lake, IL, serves grades PK-4 in the Prairie Grove Community School District 46.",public,"p,e","PK,KG,1,2,3,4",3223 Illinois 176,Crystal Lake,IL,17111.0,60014,(815) 459-3023,,McHenry County,42.258835,-88.261887,Prairie Grove Community School District 46,842,http://www.dist46.org,https://www.greatschools.org/illinois/crystal-lake/3412-Prairie-Grove-Elementary-School/
1704803,00348294,44063017X0000,St Thomas The Apostle School,"St Thomas The Apostle School, a private school located in Crystal Lake, IL, serves grades PK-8 in the .",private,"p,e,m","PK,TK,KG,1,2,3,4,5,6,7,8",265 King Street,Crystal Lake,IL,17111.0,60014,(815) 459-0496,,McHenry County,42.233105,-88.337822,,0,http://www.stthomascl.org/,https://www.greatschools.org/illinois/crystal-lake/4803-St-Thomas-The-Apostle-School/
1704885,00349742,44063001X0000,Immanuel Lutheran School,"Immanuel Lutheran School, a private school located in Crystal Lake, IL, serves grades PK-8 in the .",private,"p,e,m","PK,TK,KG,1,2,3,4,5,6,7,8",300 Pathway Court,Crystal Lake,IL,17111.0,60014,(815) 459-1444,(815) 459-1462,McHenry County,42.232227,-88.319756,,0,http://www.immanuelcl.org,https://www.greatschools.org/illinois/crystal-lake/4885-Immanuel-Lutheran-School/
1705729,173252003735,4406304601001,Prairie Grove Junior High School,"Prairie Grove Junior High School, a public school located in Crystal Lake, IL, serves grades 5-8 in the Prairie Grove Community School District 46.",public,"e,m","5,6,7,8",3225 IL Route 176,Crystal Lake,IL,17111.0,60014,(815) 459-3557,,McHenry County,42.258499,-88.262398,Prairie Grove Community School District 46,842,http://www.dist46.org,https://www.greatschools.org/illinois/prairie-grove/5729-Prairie-Grove-Junior-High-School/
1705846,171135004457,4406304702011,Glacier Ridge Elementary School,"Glacier Ridge Elementary School, a public school located in Crystal Lake, IL, serves grades PK-5 in the Crystal Lake Central Consolidated School District 47.",public,"p,e","PK,KG,1,2,3,4,5",1120 Village Road,Crystal Lake,IL,17111.0,60014,(815) 477-5518,,McHenry County,42.194382,-88.362068,Crystal Lake Central Consolidated School District 47,372,http://www.d47.org/grs,https://www.greatschools.org/illinois/crystal-lake/5846-Glacier-Ridge-Elementary-School/
1706207,K9500241,44063043X0000,Montessori Pathways,"Montessori Pathways, a private school located in Crystal Lake, IL, serves grades PK-5 in the .",private,"p,e","PK,TK,KG,1,2,3,4,5",133 Illinois Street,Crystal Lake,IL,17111.0,60014,(815) 459-6727,,McHenry County,42.245037,-88.313339,,0,www.montessoripathways.com,https://www.greatschools.org/illinois/crystal-lake/6207-Montessori-Pathways/
1706310,A9706225,,Bright Horizons,"Bright Horizons, a private school located in Crystal Lake, IL, serves grades PK-K in the .",private,"p,e","PK,KG",290 Memorial Court,Crystal Lake,IL,17111.0,60014,(815) 455-5376,,McHenry,42.233021,-88.310242,,0,,https://www.greatschools.org/illinois/crystal-lake/6310-Bright-Horizons/
1708272,A0507615,,Kindercare Learning Center,"Kindercare Learning Center, a private school located in Crystal Lake, IL, serves grades PK-K in the .",private,"p,e","PK,KG",14 Berkshire Drive,Crystal Lake,IL,17111.0,60014,(815) 459-5490,,McHenry,42.219398,-88.320374,,0,http://www.kindercare.com/our-centers/crystal-lake/il/300835/?cid=greatschools_300835,https://www.greatschools.org/illinois/crystal-lake/8272-Kindercare-Learning-Center/
1710788,,,Bright Horizons at Lake Cook,"Bright Horizons at Lake Cook, a private school located in Deerfield, IL, serves grades PK-K in the .",private,"p,e","PK,KG",1650 Lake Cook Road,Deerfield,IL,17097.0,60015,(847) 374-9000,,Lake,42.153858,-87.868912,,0,www.brighthorizons.com/lakecook,https://www.greatschools.org/illinois/deerfield/10788-Bright-Horizons-At-Lake-Cook/
1712342,,3404900440234,Classroom Connection Day School,"Classroom Connection Day School, a private school located in Bannockburn, IL, serves grades Ungraded in the .",private,"e,m,h",UG,2225 Lakeside Drive,Bannockburn,IL,17097.0,60015,(847) 582-1787,,Lake,42.200882,-87.883842,,0,,https://www.greatschools.org/illinois/bannockburn/12342-Classroom-Connection-Day-School/
1712343,,3404902410299,Felicity Schools Llc,"Felicity Schools Llc, a private school located in Deerfield, IL, serves grades Ungraded in the .",private,"e,m,h",UG,158 South Waukegan Road,Deerfield,IL,17031.0,60015,(847) 899-0002,,Cook,42.1488,-87.837151,,0,,https://www.greatschools.org/illinois/deerfield/12343-Felicity-Schools-Llc/
1712630,A0700834,,Deerfield Montessori Childrens House,"Deerfield Montessori Childrens House, a private school located in Deerfield, IL, serves grades PK-K in the .",private,"p,e","PK,KG",1500 Wilmot Road,Deerfield,IL,17097.0,60015,(847) 945-7581,,Lake,42.179905,-87.866882,,0,,https://www.greatschools.org/illinois/deerfield/12630-Deerfield-Montessori-Childrens-House/
1701725,171198001437,3404910901005,Alan B Shepard Middle School,"Alan B Shepard Middle School, a public school located in Deerfield, IL, serves grades 6-8 in the Deerfield School District 109.",public,m,"6,7,8",440 Grove Avenue,Deerfield,IL,17097.0,60015,(847) 948-0620,,Lake County,42.16119,-87.851425,Deerfield School District 109,384,http://www.dps109.org,https://www.greatschools.org/illinois/deerfield/1725-Alan-B-Shepard-Middle-School/
1701726,171198001438,3404910902003,Kipling Elementary School,"Kipling Elementary School, a public school located in Deerfield, IL, serves grades K-5 in the Deerfield School District 109.",public,e,"KG,1,2,3,4,5",700 Kipling Place,Deerfield,IL,17097.0,60015,(847) 948-5151,,Lake County,42.165977,-87.840599,Deerfield School District 109,384,http://www.dps109.org,https://www.greatschools.org/illinois/deerfield/1726-Kipling-Elementary-School/
1701727,171198001439,3404910902006,Walden Elementary School,"Walden Elementary School, a public school located in Deerfield, IL, serves grades K-5 in the Deerfield School District 109.",public,e,"KG,1,2,3,4,5",630 Essex Court,Deerfield,IL,17097.0,60015,(847) 945-9660,,Lake County,42.176994,-87.843948,Deerfield School District 109,384,http://www.dps109.org,https://www.greatschools.org/illinois/deerfield/1727-Walden-Elementary-School/
1701728,171198001440,3404910902007,Wilmot Elementary School,"Wilmot Elementary School, a public school located in Deerfield, IL, serves grades K-5 in the Deerfield School District 109.",public,e,"KG,1,2,3,4,5",795 Wilmot Road,Deerfield,IL,17097.0,60015,(847) 945-1075,,Lake County,42.166573,-87.865486,Deerfield School District 109,384,http://www.dps109.org,https://www.greatschools.org/illinois/deerfield/1728-Wilmot-Elementary-School/
1701729,171198001442,3404910902008,South Park Elementary School,"South Park Elementary School, a public school located in Deerfield, IL, serves grades PK-5 in the Deerfield School District 109.",public,"p,e","PK,KG,1,2,3,4,5",1421 Hackberry Road,Deerfield,IL,17097.0,60015,(847) 945-5895,,Lake County,42.159184,-87.864182,Deerfield School District 109,384,http://www.dps109.org,https://www.greatschools.org/illinois/deerfield/1729-South-Park-Elementary-School/
1701730,171198001444,3404910901006,Charles J Caruso Middle School,"Charles J Caruso Middle School, a public school located in Deerfield, IL, serves grades 6-8 in the Deerfield School District 109.",public,m,"6,7,8",1801 Montgomery Road,Deerfield,IL,17097.0,60015,(847) 945-8430,,Lake County,42.168789,-87.872498,Deerfield School District 109,384,http://www.dps109.org,https://www.greatschools.org/illinois/deerfield/1730-Charles-J-Caruso-Middle-School/
1702369,171908002193,3404911300001,Deerfield High School,"Deerfield High School, a public school located in Deerfield, IL, serves grades 9-12 in the Twp Hsd 113 School District.",public,h,"9,10,11,12",1959 Waukegan Road,Deerfield,IL,17097.0,60015,(224) 632-3000,,Lake County,42.186676,-87.853203,Twp Hsd 113 School District,540,http://www.dist113.org,https://www.greatschools.org/illinois/deerfield/2369-Deerfield-High-School/
1704339,00340455,34049006X0000,Holy Cross School,"Holy Cross School, a private school located in Deerfield, IL, serves grades PK-8 in the .",private,"p,e,m","PK,KG,1,2,3,4,5,6,7,8",720 Elder Lane,Deerfield,IL,17097.0,60015,(847) 945-0135,,Lake,42.171478,-87.845612,,0,http://www.holycrossdeerfield.org/,https://www.greatschools.org/illinois/deerfield/4339-Holy-Cross-School/
1700544,170495000186,3404910602001,Bannockburn School,"Bannockburn School, a public school located in Bannockburn, IL, serves grades K-8 in the Bannockburn School District 106.",public,"e,m","KG,1,2,3,4,5,6,7,8",2165 Telegraph Rd,Bannockburn,IL,17097.0,60015,(847) 945-5900,,Lake County,42.191986,-87.86412,Bannockburn School District 106,233,http://www.bannockburnschool.org,https://www.greatschools.org/illinois/deerfield/544-Bannockburn-School/
1705812,A9102523,34049009X0000,Riverwoods Montessori School,"Riverwoods Montessori School, a private school located in Riverwoods, IL, serves grades PK-6 in the .",private,"p,e","PK,KG,1,2,3,4,5,6",3140 Riverwoods Road,Riverwoods,IL,17097.0,60015,(847) 945-7582,,Lake,42.179058,-87.902328,,0,www.montessori-schools.com,https://www.greatschools.org/illinois/riverwoods/5812-Riverwoods-Montessori-School/
1706130,A0103067,05016320Y0000,Rochelle Zell Jewish High School,"Rochelle Zell Jewish High School, a private school located in Deerfield, IL, serves grades 9-12 in the .",private,h,"9,10,11,12",1095 Lake Cook Road,Deerfield,IL,17031.0,60015,(847) 470-6700,(847) 324-3701,Cook County,42.151009,-87.85421,,0,http://www.cjhs.org,https://www.greatschools.org/illinois/deerfield/6130-Chicagoland-Jewish-High-School/
1707264,,34049005X0000,Deerfield Montessori School,"Deerfield Montessori School, a private school located in Deerfield, IL, serves grades PK-K in the .",private,"p,e","PK,KG",760 North Avenue,Deerfield,IL,17097.0,60015,(847) 945-7580,,Lake,42.182285,-87.846489,,0,http://www.montessori-schools.com,https://www.greatschools.org/illinois/deerfield/7264-Deerfield-Montessori-School/
1707287,,34049092X0000,Dfld Montessori Childrens House,"Dfld Montessori Childrens House, a private school located in Deerfield, IL, serves grades PK-K in the .",private,"p,e","PK,KG",1500 Wilmot Road,Deerfield,IL,17097.0,60015,(847) 945-7581,,Lake,42.179905,-87.866882,,0,http://www.montessori-schools.com,https://www.greatschools.org/illinois/deerfield/7287-Dfld-Montessori-Childrens-House/
1708328,A0507500,,Bright Horizons Child Care & Early Education,"Bright Horizons Child Care & Early Education, a private school located in Deerfield, IL, serves grades PK-K in the .",private,"p,e","PK,KG",5 Parkway North,Deerfield,IL,17097.0,60015,(847) 945-0980,,Lake,42.16378,-87.882172,,0,,https://www.greatschools.org/illinois/deerfield/8328-Bright-Horizons-Child-Care--Early-Education/
1710121,A0501611,,The Camelot School,"The Camelot School, a private school located in Des Plaines, IL, serves grades 2-12 in the .",private,"e,m,h","2,3,4,5,6,7,8,9,10,11,12",1455a Prairie,Des Plaines,IL,17031.0,60016,(847) 391-8035,,Cook,42.040283,-87.889496,,0,,https://www.greatschools.org/illinois/des-plaines/10121-The-Camelot-School/
1710406,170003206204,0501680506013,Terrace School - Deaf / Hard of Hearing Early Childhood Program,"Terrace School - Deaf / Hard of Hearing Early Childhood Program, a public school located in Des Plaines, IL, serves grades Ungraded in the NW Suburban Special Education Org.",public,"e,m,h",UG,735 South Westgate Road,Des Plaines,IL,17031.0,60016,(847) 824-1380,,Cook County,42.039181,-87.917778,NW Suburban Special Education Org,26,,https://www.greatschools.org/illinois/des-plaines/10406-Terrace-School-D-HH-EC-Program/
1710422,,05016124X0000,A Mothers Touch Learning Academy,"A Mothers Touch Learning Academy, a private school located in Des Plaines, IL, serves grades PK-K in the .",private,"p,e","PK,KG",1666 Rand Road,Des Plaines,IL,17031.0,60016,(847) 823-1020,,Cook,42.046486,-87.882614,,0,,https://www.greatschools.org/illinois/des-plaines/10422-A-Mothers-Touch-Learning-Academy/
1710697,BB080609,,One Hope United Child Developement,"One Hope United Child Developement, a private school located in Des Plaines, IL, serves grades PK-K in the .",private,"p,e","PK,KG",9375 West Church Street,Des Plaines,IL,17031.0,60016,(847) 824-5180,,Cook,42.04599,-87.858795,,0,,https://www.greatschools.org/illinois/des-plaines/10697-One-Hope-United-Child-Developement/
1711303,,,Lattof Ymca,"Lattof Ymca, a private school located in Des Plaines, IL, serves grades PK-K in the .",private,"p,e","PK,KG",300 East Northwest Highway,Des Plaines,IL,17031.0,60016,(847) 296-3376,,Cook,42.054935,-87.915527,,0,,https://www.greatschools.org/illinois/des-plaines/11303-Lattof-Ymca/
1712108,,0501601460222,Maryville Jen Unit C,"Maryville Jen Unit C, a private school located in Des Plaines, IL, serves grades Ungraded in the .",private,"e,m,h",UG,1150 North River Road,Des Plaines,IL,17031.0,60016,(847) 390-3020,,Cook,42.066868,-87.897606,,0,,https://www.greatschools.org/illinois/des-plaines/12108-Maryville-Jen-Unit-C/
1712109,,0501601460223,Maryville Jen Unit C - Invest,"Maryville Jen Unit C - Invest, a private school located in Des Plaines, IL, serves grades Ungraded in the .",private,"e,m,h",UG,1150 North River Road,Des Plaines,IL,17031.0,60016,(847) 390-3020,,Cook,42.066868,-87.897606,,0,,https://www.greatschools.org/illinois/des-plaines/12109-Maryville-Jen-Unit-C---Invest/
1712110,,0501601460224,Maryville Jen School,"Maryville Jen School, a private school located in Des Plaines, IL, serves grades Ungraded in the .",private,"e,m,h",UG,1150 North River Road,Des Plaines,IL,17031.0,60016,(847) 390-3020,,Cook,42.066868,-87.897606,,0,,https://www.greatschools.org/illinois/des-plaines/12110-Maryville-Jen-School/
1712111,,0501601460273,Maryville Jen Unit A - Invest,"Maryville Jen Unit A - Invest, a private school located in Des Plaines, IL, serves grades Ungraded in the .",private,"e,m,h",UG,1150 North River Road,Des Plaines,IL,17031.0,60016,(847) 390-3020,,Cook,42.066868,-87.897606,,0,,https://www.greatschools.org/illinois/des-plaines/12111-Maryville-Jen-Unit-A---Invest/
1712112,,0501601460537,Maryville Jen Unit B,"Maryville Jen Unit B, a private school located in Des Plaines, IL, serves grades Ungraded in the .",private,"e,m,h",UG,1150 North River Road,Des Plaines,IL,17031.0,60016,(847) 390-3020,,Cook,42.066868,-87.897606,,0,,https://www.greatschools.org/illinois/des-plaines/12112-Maryville-Jen-Unit-B/
1712113,,0501601460539,Maryville Jen Unit B - Invest,"Maryville Jen Unit B - Invest, a private school located in Des Plaines, IL, serves grades Ungraded in the .",private,"e,m,h",UG,1150 North River Road,Des Plaines,IL,17031.0,60016,(847) 390-3020,,Cook,42.066868,-87.897606,,0,,https://www.greatschools.org/illinois/des-plaines/12113-Maryville-Jen-Unit-B---Invest/
1712146,,0501603050165,Joseph Academy - Des Plaines,"Joseph Academy - Des Plaines, a private school located in Des Plaines, IL, serves grades Ungraded in the .",private,"e,m,h",UG,1101 Gregory St,Des Plaines,IL,17031.0,60016,(847) 803-1930,,Cook,42.07235,-87.895485,,0,,https://www.greatschools.org/illinois/des-plaines/12146-Joseph-Academy---Des-Plaines/
1712610,A0971034,,A Mothers Touch Learning Academy,"A Mothers Touch Learning Academy, a private school located in Des Plaines, IL, serves grades PK-K in the .",private,"p,e","PK,TK,KG",1666 Rand Road,Des Plaines,IL,17031.0,60016,(847) 813-5039,,Cook County,42.046463,-87.882629,,0,,https://www.greatschools.org/illinois/niles/12610-A-Mothers-Touch-Learning-Academy/
1713220,A0901480,,Guardian Angel Orthodox Day School,"Guardian Angel Orthodox Day School, a private school located in Des Plaines, IL, serves grades PK-8 in the .",private,"p,e,m","PK,TK,KG,1,2,3,4,5,6,7,8",2350 East Dempster Street,Des Plaines,IL,17031.0,60016,(847) 827-5519,,Cook County,42.040554,-87.866096,,0,,https://www.greatschools.org/illinois/des-plaines/13220-Guardian-Angel-Orthodox-Day-School/
1713251,BB100576,,Maryville Jen School,"Maryville Jen School, a private school located in Des Plaines, IL, serves grades 9-12 in the .",private,h,"9,10,11,12",1150 North River Road,Des Plaines,IL,17031.0,60016,(847) 390-3020,,Cook County,42.06879,-87.899033,,0,,https://www.greatschools.org/illinois/des-plaines/13251-Maryville-Jen-School/
1713284,BB170166,,Plato Academy Inc,"Plato Academy Inc, a private school located in Des Plaines, IL, serves grades PK-8 in the .",private,"p,e,m","PK,TK,KG,1,2,3,4,5,6,7,8",733 Lee Street,Des Plaines,IL,17031.0,60016,(847) 768-7188,,Cook County,42.039734,-87.888649,,0,,https://www.greatschools.org/illinois/des-plaines/13284-Plato-Academy-Inc/
1713386,A1901708,,Iccd Academy,"Iccd Academy, a private school located in Des Plaines, IL, serves grades PK-5 in the .",private,"p,e","PK,TK,KG,1,2,3,4,5",480 Potter Road,Des Plaines,IL,17031.0,60016,(224) 567-8256,,Cook County,42.045406,-87.860886,,0,,https://www.greatschools.org/illinois/des-plaines/13386-Iccd-Academy/
1701748,171212001460,0501606201001,Algonquin Middle School,"Algonquin Middle School, a public school located in Des Plaines, IL, serves grades 6-8 in the Community Consolidated School District 62.",public,m,"6,7,8",767 East Algonquin Road,Des Plaines,IL,17031.0,60016,(847) 824-1205,,Cook County,42.030338,-87.905693,Community Consolidated School District 62,389,,https://www.greatschools.org/illinois/des-plaines/1748-Algonquin-Middle-School/
1701749,171212001461,0501606202002,Central Elementary School,"Central Elementary School, a public school located in Des Plaines, IL, serves grades K-5 in the Community Consolidated School District 62.",public,e,"KG,1,2,3,4,5",1526 East Thacker Street,Des Plaines,IL,17031.0,60016,(847) 824-1575,,Cook County,42.03767,-87.88604,Community Consolidated School District 62,389,http://www.d62.org,https://www.greatschools.org/illinois/des-plaines/1749-Central-Elementary-School/
1701750,171212001462,0501606201003,Chippewa Middle School,"Chippewa Middle School, a public school located in Des Plaines, IL, serves grades 6-8 in the Community Consolidated School District 62.",public,m,"6,7,8",123 North 8th Avenue,Des Plaines,IL,17031.0,60016,(847) 824-1503,,Cook County,42.055237,-87.907967,Community Consolidated School District 62,389,http://www.d62.org,https://www.greatschools.org/illinois/des-plaines/1750-Chippewa-Middle-School/
1701751,171212001463,0501606202004,Cumberland Elementary School,"Cumberland Elementary School, a public school located in Des Plaines, IL, serves grades K-5 in the Community Consolidated School District 62.",public,e,"KG,1,2,3,4,5",700 East Golf Road,Des Plaines,IL,17031.0,60016,(847) 824-1451,,Cook County,42.054974,-87.905937,Community Consolidated School District 62,389,http://www.d62.org,https://www.greatschools.org/illinois/des-plaines/1751-Cumberland-Elementary-School/
1701754,171212001466,0501606202008,North Elementary School,"North Elementary School, a public school located in Des Plaines, IL, serves grades K-5 in the Community Consolidated School District 62.",public,e,"KG,1,2,3,4,5",1789 Rand Road,Des Plaines,IL,17031.0,60016,(847) 824-1399,,Cook County,42.044086,-87.881439,Community Consolidated School District 62,389,http://www.d62.org,https://www.greatschools.org/illinois/des-plaines/1754-North-Elementary-School/
1701758,171212001470,0501606202012,Terrace Elementary School,"Terrace Elementary School, a public school located in Des Plaines, IL, serves grades K-5 in the Community Consolidated School District 62.",public,e,"KG,1,2,3,4,5",735 South Westgate Road,Des Plaines,IL,17031.0,60016,(847) 824-1501,(847) 824-1764,Cook County,42.039181,-87.917778,Community Consolidated School District 62,389,http://terrace.d62.org/,https://www.greatschools.org/illinois/des-plaines/1758-Terrace-Elementary-School/
1701842,171314000063,0501606302012,Apollo Elementary School,"Apollo Elementary School, a public school located in Des Plaines, IL, serves grades K-5 in the East Maine School District 63.",public,e,"KG,1,2,3,4,5",10100 Dee Road,Des Plaines,IL,17031.0,60016,(847) 827-6231,(847) 827-1785,Cook County,42.062893,-87.857735,East Maine School District 63,415,http://www.emsd63.org/apollo,https://www.greatschools.org/illinois/des-plaines/1842-Apollo-Elementary-School/
1701993,171377001718,0501605902001,Brentwood Elementary School,"Brentwood Elementary School, a public school located in Des Plaines, IL, serves grades K-5 in the Comm Cons School District 59.",public,e,"KG,1,2,3,4,5",260 Dulles Road,Des Plaines,IL,17031.0,60016,(847) 593-4401,,Cook County,42.045483,-87.928123,Comm Cons School District 59,434,http://www.ccsd59.org/brentwood,https://www.greatschools.org/illinois/des-plaines/1993-Brentwood-Elementary-School/
1704341,00340477,05016658X0000,St Zachary Elementary School,"St Zachary Elementary School, a private school located in Des Plaines, IL, serves grades PK-8 in the .",private,"p,e,m","PK,TK,KG,1,2,3,4,5,6,7,8",567 West Algonquin Road,Des Plaines,IL,17031.0,60016,(847) 437-4022,(847) 758-1064,Cook County,42.029346,-87.93409,,0,www.saintzacharyschool.org,https://www.greatschools.org/illinois/des-plaines/4341-St-Zachary-Elementary-School/
1704878,00349629,05016128X0000,Immanuel Lutheran School,"Immanuel Lutheran School, a private school located in Des Plaines, IL, serves grades PK-8 in the .",private,"p,e,m","PK,KG,1,2,3,4,5,6,7,8",832 Lee Street,Des Plaines,IL,17031.0,60016,(847) 390-0990,,Cook,42.038128,-87.891022,,0,http://www.immanueldesplaines.net/,https://www.greatschools.org/illinois/des-plaines/4878-Immanuel-Lutheran-School/
1705070,00353511,05016222X0000,Plato Academy,"Plato Academy, a private school located in Des Plaines, IL, serves grades PK-8 in the .",private,"p,e,m","PK,TK,KG,1,2,3,4,5,6,7,8",915 Lee Street,Des Plaines,IL,17031.0,60016,(847) 768-7188,(847) 581-1020,Cook County,42.036652,-87.891296,,0,http://platoacademy.org,https://www.greatschools.org/illinois/des-plaines/5070-Plato-Academy/
1705162,02024154,05016091Z0000,Brentwood Baptist Christian Academy,"Brentwood Baptist Christian Academy, a private school located in Des Plaines, IL, serves grades PK-12 in the .",private,"p,e,m,h","PK,KG,1,2,3,4,5,6,7,8,9,10,11,12",588 Dara James Street,Des Plaines,IL,17031.0,60016,(847) 298-3399,,Cook,42.041073,-87.927979,,0,,https://www.greatschools.org/illinois/des-plaines/5162-Brentwood-Baptist-Christian-Academy/
1705403,A9501698,05016907Z0000,Science & Arts Academy,"Science & Arts Academy, a private school located in Des Plaines, IL, serves grades PK-8 in the .",private,"p,e,m","PK,TK,KG,1,2,3,4,5,6,7,8",1825 Miner Street,Des Plaines,IL,17031.0,60016,(847) 827-7880,(847) 827-7716,Cook County,42.038685,-87.877838,,0,http://www.scienceandartsacademy.org/,https://www.greatschools.org/illinois/des-plaines/5403-Science--Arts-Academy/
1705562,02023649,05016982Z0000,The Willows Academy,"The Willows Academy, a private school located in Des Plaines, IL, serves grades 6-12 in the .",private,"m,h","6,7,8,9,10,11,12",1015 Rose Avenue,Des Plaines,IL,17031.0,60016,(847) 824-6900,,Cook County,42.038982,-87.898308,,0,,https://www.greatschools.org/illinois/des-plaines/5562-The-Willows-Academy/
1706046,BB100575,,Kindercare Learning Center,"Kindercare Learning Center, a private school located in Des Plaines, IL, serves grades PK-K in the .",private,"p,e","PK,KG",8650 West Ballard Road,Des Plaines,IL,17031.0,60016,(847) 803-9929,,Cook,42.043968,-87.842064,,0,http://www.kindercare.com/our-centers/des-plaines/il/301141/?cid=greatschools_301141,https://www.greatschools.org/illinois/des-plaines/6046-Kindercare-Learning-Center/
1707501,,05016414X0000,Guardian Angel Orthodox Day School,"Guardian Angel Orthodox Day School, a private school located in Des Plaines, IL, serves grades PK-4 in the .",private,"p,e","PK,KG,1,2,3,4",2350 East Dempster Street,Des Plaines,IL,17031.0,60016,(847) 827-5510,,Cook,42.039158,-87.866371,,0,http://www.gaods.org/,https://www.greatschools.org/illinois/des-plaines/7501-Guardian-Angel-Orthodox-Day-School/
1708343,,,Ceda Des Plaines High School St Center,"Ceda Des Plaines High School St Center, a private school located in Des Plaines, IL, serves grades PK-K in the .",private,"p,e","PK,KG",1170 North River Road,Des Plaines,IL,17031.0,60016,(847) 298-1130,,Cook,42.067844,-87.894707,,0,,https://www.greatschools.org/illinois/des-plaines/8343-Ceda-Des-Plaines-High-School-St-Center/
1708441,,,Sunshine Day Care Center,"Sunshine Day Care Center, a private school located in Des Plaines, IL, serves grades PK-K in the .",private,"p,e","PK,KG",1157 East Algonquin Road,Des Plaines,IL,17031.0,60016,(847) 297-3010,,Cook,42.030968,-87.895309,,0,,https://www.greatschools.org/illinois/des-plaines/8441-Sunshine-Day-Care-Center/
1709040,,,A Mother's Touch Creative Lc,"A Mother's Touch Creative Lc, a private school located in Des Plaines, IL, serves grades PK-K in the .",private,"p,e","PK,KG",1666 Rand Road,Des Plaines,IL,17031.0,60016,(847) 823-1020,,Cook,42.046486,-87.882614,,0,,https://www.greatschools.org/illinois/des-plaines/9040-A-Mothers-Touch-Creative-Lc/
1710736,BB100729,,Angel Town Private School,"Angel Town Private School, a private school located in Des Plaines, IL, serves grades PK-K in the .",private,"p,e","PK,KG",1920 East Touhy Avenue,Des Plaines,IL,17031.0,60018,(847) 827-8203,,Cook,42.00988,-87.876869,,0,,https://www.greatschools.org/illinois/des-plaines/10736-Angel-Town-Private-School/
1713582,170022006847,0500000009501,Ncisc Alop,"Ncisc Alop, a public school located in Des Plaines, IL, serves grades 6-12 in the Region 05 North Cook Intermediate Service Center 1.",public,"m,h","6,7,8,9,10,11,12",1001 East Touhy Avenue,Des Plaines,IL,17031.0,60018,(847) 803-3702,,Cook County,42.008461,-87.89756,Region 05 North Cook Intermediate Service Center 1,1106,,https://www.greatschools.org/illinois/des-plaines/13582-Ncisc-Alop/
1713613,170022006875,0500000009502,North Cook Student Advocacy Alop,"North Cook Student Advocacy Alop, a public school located in Des Plaines, IL, serves grades 6-12 in the Region 05 North Cook Intermediate Service Center 1.",public,"m,h","6,7,8,9,10,11,12",1001 East Touhy Avenue,Des Plaines,IL,17031.0,60018,(847) 824-8300,,Cook County,42.008461,-87.89756,Region 05 North Cook Intermediate Service Center 1,1106,,https://www.greatschools.org/illinois/des-plaines/13613-North-Cook-Student-Advocacy-Alop/
1701752,171212001464,0501606202005,Forest Elementary School,"Forest Elementary School, a public school located in Des Plaines, IL, serves grades PK-5 in the Community Consolidated School District 62.",public,"p,e","PK,KG,1,2,3,4,5",1375 S 5th Ave,Des Plaines,IL,17031.0,60018,(847) 824-1380,,Cook County,42.028038,-87.905525,Community Consolidated School District 62,389,http://www.d62.org/forest/home/index.html,https://www.greatschools.org/illinois/des-plaines/1752-Forest-Elementary-School/
1701753,171212001465,0501606202001,Iroquois Community School,"Iroquois Community School, a public school located in Des Plaines, IL, serves grades K-8 in the Community Consolidated School District 62.",public,"e,m","KG,1,2,3,4,5,6,7,8",1836 East Touhy Avenue,Des Plaines,IL,17031.0,60018,(847) 824-1308,,Cook County,42.0107,-87.878601,Community Consolidated School District 62,389,,https://www.greatschools.org/illinois/des-plaines/1753-Iroquois-Community-School/
1701755,171212001467,0501606202009,Orchard Place Elementary School,"Orchard Place Elementary School, a public school located in Des Plaines, IL, serves grades K-5 in the Community Consolidated School District 62.",public,e,"KG,1,2,3,4,5",2727 Maple Street,Des Plaines,IL,17031.0,60018,(847) 824-1255,,Cook County,42.003742,-87.878754,Community Consolidated School District 62,389,http://www.d62.org,https://www.greatschools.org/illinois/des-plaines/1755-Orchard-Place-Elementary-School/
1701756,171212001468,0501606202010,Plainfield Elementary School,"Plainfield Elementary School, a public school located in Des Plaines, IL, serves grades K-5 in the Community Consolidated School District 62.",public,e,"KG,1,2,3,4,5",1850 Plainfield Drive,Des Plaines,IL,17031.0,60018,(847) 824-1301,,Cook County,42.019249,-87.90258,Community Consolidated School District 62,389,http://www.d62.org,https://www.greatschools.org/illinois/des-plaines/1756-Plainfield-Elementary-School/
1701757,171212001469,0501606202011,South Elementary School,"South Elementary School, a public school located in Des Plaines, IL, serves grades K-5 in the Community Consolidated School District 62.",public,e,"KG,1,2,3,4,5",1535 Everett Avenue,Des Plaines,IL,17031.0,60018,(847) 824-1566,,Cook County,42.020123,-87.88591,Community Consolidated School District 62,389,http://wwwd62.org,https://www.greatschools.org/illinois/des-plaines/1757-South-Elementary-School/
1701989,171377001714,0501605902006,Devonshire School,"Devonshire School, a public school located in Des Plaines, IL, serves grades K-5 in the Comm Cons School District 59.",public,e,"KG,1,2,3,4,5",1401 Pennsylvania Avenue,Des Plaines,IL,17031.0,60018,(847) 593-4398,,Cook County,42.027321,-87.926155,Comm Cons School District 59,434,http://devonshire.ccsd59.org,https://www.greatschools.org/illinois/des-plaines/1989-Devonshire-School/
1701999,171377001730,0501605901016,Friendship Jr High School,"Friendship Jr High School, a public school located in Des Plaines, IL, serves grades 6-8 in the Comm Cons School District 59.",public,m,"6,7,8",550 Elizabeth Lane,Des Plaines,IL,17031.0,60018,(847) 593-4350,,Cook County,42.027359,-87.934875,Comm Cons School District 59,434,http://www.ccsd59.org,https://www.greatschools.org/illinois/des-plaines/1999-Friendship-Jr-High-School/
1702744,172409005032,0501620700004,Maine West High School,"Maine West High School, a public school located in Des Plaines, IL, serves grades 9-12 in the Maine Township Hsd 207 School District.",public,h,"9,10,11,12",1755 South Wolf Road,Des Plaines,IL,17031.0,60018,(847) 827-6176,,Cook County,42.021011,-87.906647,Maine Township Hsd 207 School District,658,http://west.maine207.org,https://www.greatschools.org/illinois/des-plaines/2744-Maine-West-High-School/
1703650,173477003659,0601607802001,Rosemont Elementary School,"Rosemont Elementary School, a public school located in Rosemont, IL, serves grades PK-8 in the Rosemont Esd 78 School District.",public,"p,e,m","PK,KG,1,2,3,4,5,6,7,8",6101 Ruby Street,Rosemont,IL,17031.0,60018,(847) 825-0144,,Cook County,41.989578,-87.870239,Rosemont Esd 78 School District,901,http://www.rosemont78.org/,https://www.greatschools.org/illinois/rosemont/3650-Rosemont-Elementary-School/
1704340,00340466,05016657X0000,Our Lady Of Destiny School,"Our Lady Of Destiny School, a private school located in Des Plaines, IL, serves grades PK-8 in the .",private,"p,e,m","PK,KG,1,2,3,4,5,6,7,8",1880 Ash Street,Des Plaines,IL,17031.0,60018,(847) 827-2900,,Cook,42.018692,-87.892181,,0,http://ourladyofdestinyschool.org/,https://www.greatschools.org/illinois/des-plaines/4340-Our-Lady-Of-Destiny-School/
1705763,170022003951,0500000009301,North Cook Young Adult Academy,"North Cook Young Adult Academy, a public school located in Des Plaines, IL, serves grades 6-12 in the Region 05 North Cook Intermediate Service Center 1.",public,"m,h","6,7,8,9,10,11,12",1001 East Touhy Avenue,Des Plaines,IL,17031.0,60018,(847) 803-3702,,Cook County,42.008461,-87.89756,Region 05 North Cook Intermediate Service Center 1,1106,http://www.ncisc.org/NCYAA,https://www.greatschools.org/illinois/des-plaines/5763-North-Cook-Young-Adult-Academy/
1706147,BB941025,,Kiddie Junction Educational Institute,"Kiddie Junction Educational Institute, a private school located in Des Plaines, IL, serves grades K in the .",private,e,KG,1619 East Oakton Street,Des Plaines,IL,17031.0,60018,(847) 827-5415,,Cook,42.023998,-87.883919,,0,http://www.kiddiejunction.net/,https://www.greatschools.org/illinois/des-plaines/6147-Kiddie-Junction-Educational-Institute/
1708350,A0501504,05016047X0000,Angel Town Private School,"Angel Town Private School, a private school located in Des Plaines, IL, serves grades PK-K in the .",private,"p,e","PK,KG",1920 East Touhy Avenue,Des Plaines,IL,17031.0,60018,(847) 827-8203,,Cook,42.00988,-87.876869,,0,,https://www.greatschools.org/illinois/des-plaines/8350-Angel-Town-Private-School/
1708353,,,Bright Horizons,"Bright Horizons, a private school located in Rosemont, IL, serves grades PK-K in the .",private,"p,e","PK,KG",6107 North River Road,Rosemont,IL,17031.0,60018,(847) 384-5650,,Cook,41.986828,-87.859093,,0,,https://www.greatschools.org/illinois/rosemont/8353-Bright-Horizons/
1702116,171563001877,3404911401001,Stanton School,"Stanton School, a public school located in Fox Lake, IL, serves grades 5-8 in the Fox Lake Grade School District 114 School District.",public,"e,m","5,6,7,8",101 Hawthorne Lane,Fox Lake,IL,17097.0,60020,(847) 973-4205,(847) 973-4210,Lake County,42.389732,-88.16246,Fox Lake Grade School District 114 School District,468,http://www.foxlake114.org,https://www.greatschools.org/illinois/fox-lake/2116-Stanton-School/
1702254,171734002050,3404912400001,Grant Community High School,"Grant Community High School, a public school located in Fox Lake, IL, serves grades 9-12 in the Grant Chsd 124 School District.",public,h,"9,10,11,12",285 East Grand Avenue,Fox Lake,IL,17097.0,60020,(847) 587-2561,,Lake County,42.394066,-88.158951,Grant Chsd 124 School District,506,http://www.grantbulldogs.org,https://www.greatschools.org/illinois/fox-lake/2254-Grant-Community-High-School/
1702119,171566001878,4406300302001,Algonquin Road Elementary School,"Algonquin Road Elementary School, a public school located in Fox River Grove, IL, serves grades PK-4 in the Fox River Grove Cons School District 3.",public,"p,e","PK,KG,1,2,3,4",975 Algonquin Road,Fox River Grove,IL,17111.0,60021,(847) 516-5101,,McHenry County,42.189919,-88.227806,Fox River Grove Cons School District 3,469,http://www.dist3.org,https://www.greatschools.org/illinois/fox-river-grove/2119-Algonquin-Road-Elementary-School/
1702120,171566005508,4406300301001,Fox River Grove Middle School,"Fox River Grove Middle School, a public school located in Fox River Grove, IL, serves grades 5-8 in the Fox River Grove Cons School District 3.",public,"e,m","5,6,7,8",401 Orchard Street,Fox River Grove,IL,17111.0,60021,(847) 516-5105,,McHenry County,42.197575,-88.213371,Fox River Grove Cons School District 3,469,http://www.dist3.org,https://www.greatschools.org/illinois/fox-river-grove/2120-Fox-River-Grove-Middle-School/
1710943,,,Glencoe Park District Early Lc,"Glencoe Park District Early Lc, a private school located in Glencoe, IL, serves grades PK-K in the .",private,"p,e","PK,KG",999 Green Bay Road,Glencoe,IL,17031.0,60022,(847) 835-3035,,Cook,42.142437,-87.765152,,0,,https://www.greatschools.org/illinois/glencoe/10943-Glencoe-Park-District-Early-Lc/
1702215,171686001992,0501603502002,South Elementary School,"South Elementary School, a public school located in Glencoe, IL, serves grades PK-2 in the Glencoe School District 35.",public,"p,e","PK,KG,1,2",266 Linden Avenue,Glencoe,IL,17031.0,60022,(847) 835-6400,,Cook County,42.12431,-87.751541,Glencoe School District 35,497,http://www.glencoeschools.org,https://www.greatschools.org/illinois/glencoe/2215-South-Elementary-School/
1702216,171686001993,0501603501001,Central School,"Central School, a public school located in Glencoe, IL, serves grades 5-8 in the Glencoe School District 35.",public,"e,m","5,6,7,8",620 Greenwood Avenue,Glencoe,IL,17031.0,60022,(847) 835-7600,,Cook County,42.1311,-87.760262,Glencoe School District 35,497,http://www.glencoeschools.org,https://www.greatschools.org/illinois/glencoe/2216-Central-School/
1702217,171686005280,0501603502001,West School,"West School, a public school located in Glencoe, IL, serves grades 3-4 in the Glencoe School District 35.",public,e,"3,4",1010 Forestway Drive,Glencoe,IL,17031.0,60022,(847) 835-6600,,Cook County,42.1371,-87.775856,Glencoe School District 35,497,http://www.glencoeschools.org,https://www.greatschools.org/illinois/glencoe/2217-West-School/
1710907,,,Wesley Child Care Center,"Wesley Child Care Center, a private school located in Glenview, IL, serves grades PK-K in the .",private,"p,e","PK,KG",727 Harlem Avenue,Glenview,IL,17031.0,60025,,,Cook,42.067665,-87.805183,,0,http://www.wesleychildcarecenter.com/,https://www.greatschools.org/illinois/glenview/10907-Wesley-Child-Care-Center/
1701846,171314001555,0501606302010,Washington Elementary School,"Washington Elementary School, a public school located in Glenview, IL, serves grades K-5 in the East Maine School District 63.",public,e,"KG,1,2,3,4,5",2710 Golf Road,Glenview,IL,17031.0,60025,(847) 965-4780,(847) 965-4807,Cook County,42.055729,-87.826035,East Maine School District 63,415,http://www.emsd63.org/Washington,https://www.greatschools.org/illinois/glenview/1846-Washington-Elementary-School/
1702218,171692001998,0501603402001,Glen Grove Elementary School,"Glen Grove Elementary School, a public school located in Glenview, IL, serves grades 3-5 in the Glenview Central Consolidated School District 34.",public,e,"3,4,5",3900 Glenview Road,Glenview,IL,17031.0,60025,(847) 998-5030,,Cook County,42.074162,-87.852745,Glenview Central Consolidated School District 34,498,http://www.glenview34.org,https://www.greatschools.org/illinois/glenview/2218-Glen-Grove-Elementary-School/
1702219,171692001999,0501603402002,Henking Elementary School,"Henking Elementary School, a public school located in Glenview, IL, serves grades PK-2 in the Glenview Central Consolidated School District 34.",public,"p,e","PK,KG,1,2",2941 Linneman Street,Glenview,IL,17031.0,60025,(847) 998-5035,,Cook County,42.06908,-87.831528,Glenview Central Consolidated School District 34,498,http://www.glenview34.org,https://www.greatschools.org/illinois/glenview/2219-Henking-Elementary-School/
1702220,171692002000,0501603402003,Hoffman Elementary School,"Hoffman Elementary School, a public school located in Glenview, IL, serves grades 3-5 in the Glenview Central Consolidated School District 34.",public,e,"3,4,5",2000 Harrison Street,Glenview,IL,17031.0,60025,(847) 998-5040,,Cook County,42.063774,-87.808701,Glenview Central Consolidated School District 34,498,http://www.glenview34.org,https://www.greatschools.org/illinois/glenview/2220-Hoffman-Elementary-School/
1702221,171692002001,0501603402004,Lyon Elementary School,"Lyon Elementary School, a public school located in Glenview, IL, serves grades PK-2 in the Glenview Central Consolidated School District 34.",public,"p,e","PK,KG,1,2",1335 Waukegan Road,Glenview,IL,17031.0,60025,(847) 998-5045,,Cook County,42.07901,-87.796738,Glenview Central Consolidated School District 34,498,http://www.glenview34.org,https://www.greatschools.org/illinois/glenview/2221-Lyon-Elementary-School/
1702222,171692002002,0501603402005,Pleasant Ridge Elementary School,"Pleasant Ridge Elementary School, a public school located in Glenview, IL, serves grades 3-5 in the Glenview Central Consolidated School District 34.",public,e,"3,4,5",1730 Sunset Ridge Road,Glenview,IL,17031.0,60025,(847) 998-5050,,Cook County,42.086807,-87.792419,Glenview Central Consolidated School District 34,498,http://www.glenview34.org,https://www.greatschools.org/illinois/glenview/2222-Pleasant-Ridge-Elementary-School/
